{"formation":["PNL","Hypnose","Sophrologie","Coaching","Psycho-Pathologie","Sexoth\u00e9rapie","Deep Neural Repatterning","Psycho-Praticien","Hypnose Sp\u00e9cialit\u00e9","Diplome NGH","Neuroline","Heritage","Th\u00e9rapie Br\u00e8ve","PNL & Hypnose","Divers","reservation","Report Paiement en Attente de dates","Congr\u00e8s","FORMATION"],"region":{"6":{"title":"Bordeaux","lat":44.837789,"lng":-0.57918},"20":{"title":"Bruxelles","lat":50.8503463,"lng":4.3517211},"34":{"title":"Caen","lat":49.182863,"lng":-0.370679},"22":{"title":"Canada","lat":56.130366,"lng":-106.346771},"39":{"title":"Charleroi","lat":50.4108095,"lng":4.444643},"25":{"title":"Clermont Ferrand","lat":45.777222,"lng":3.087025},"42":{"title":"Esch-sur-Alzette","lat":49.5008805,"lng":5.9860925},"40":{"title":"Fribourg","lat":46.8064773,"lng":7.1619719},"18":{"title":"Gen\u00e8ve","lat":46.2043907,"lng":6.1431577},"13":{"title":"Guadeloupe Martinique Guyane","lat":16.2242724,"lng":-61.5289325},"41":{"title":"Lausanne","lat":46.5196535,"lng":6.6322734},"37":{"title":"Li\u00e8ge","lat":50.6325574,"lng":5.5796662},"9":{"title":"Lille","lat":50.62925,"lng":3.057256},"21":{"title":"Londres","lat":51.5073509,"lng":-0.1277583},"36":{"title":"Luxembourg","lat":49.815273,"lng":6.129583},"4":{"title":"Lyon","lat":45.764043,"lng":4.835659},"17":{"title":"Marseille","lat":43.296482,"lng":5.36978},"19":{"title":"Montpellier","lat":43.610769,"lng":3.876716},"38":{"title":"Namur","lat":50.4673883,"lng":4.8719854},"35":{"title":"Nantes","lat":47.218371,"lng":-1.553621},"7":{"title":"Paris","lat":48.856614,"lng":2.3522219},"23":{"title":"Perpignan","lat":42.6886591,"lng":2.8948332},"3":{"title":"Rennes","lat":48.117266,"lng":-1.6777926},"11":{"title":"Reunion","lat":-21.115141,"lng":55.536384},"8":{"title":"Strasbourg","lat":48.5734053,"lng":7.7521113},"24":{"title":"Toulouse","lat":43.604652,"lng":1.444209},"33":{"title":"UK","lat":55.378051,"lng":-3.435973}},"participant":[{"AdherentsSuph":{"id":"4","nom":"Alexis","prenom":"Adolphe","email":"adolphe.alexis@orange.fr","adresse":"32 Lotissement des Vallons","ville":"Fort de France","latitude":"14.6391244","longitude":"-61.0734717","is_client":"1","id_client":"4818","code_postal":"97234"},"Civilite":{"title":"M."},"Client":{"region_id":"7"},"domaine":{"#33e3ff":"Fundamental Coaching Skills","#006ef5":"Praticien en PNL","#fe7beb":"Ma\u00eetre Praticien en Hypnose Ericksonienne","#0000ff":"Ma\u00eetre-praticien en PNL","#b457df":"Hypno-Analg\u00e9sie","#a59394":"Praticien en Deep Neural Repatterning","#ea8a10":"Praticien en Hypno-Magn\u00e9tisme"}},{"AdherentsSuph":{"id":"5","nom":"Alloin","prenom":"Fran\u00e7oise","email":"alloin.francoise@gmail.com","adresse":"85 Chemin des Bois","ville":"Lachassagne","latitude":"45.931624","longitude":"4.6741397","is_client":"1","id_client":"4085","code_postal":"69480"},"Civilite":{"title":"Mme"},"Client":{"region_id":"4"},"domaine":{"#b457df":"Praticien en Anneau Gastrique Hypnotique","#fe7beb":"Ma\u00eetre Praticien en Hypnose Ericksonienne","#ea8a10":"Praticien en Hypno-Magn\u00e9tisme","#f9436c":"Speed Hypnose","#a59394":"Praticien en Deep Neural Repatterning","#2ec26b":"Th\u00e9rapie br\u00e8ve Base Syst\u00e9mique"}},{"AdherentsSuph":{"id":"6","nom":"Alvado","prenom":"Patricia","email":"patyfushia@gmail.com","adresse":"15 Rue des Biesses","ville":"Jonage","latitude":"45.7907107","longitude":"5.0375476","is_client":"1","id_client":"9565","code_postal":"69330"},"Civilite":{"title":"Mme"},"Client":{"region_id":"4"},"domaine":{"#fe7beb":"Praticien en Hypnose Ericksonienne"}},{"AdherentsSuph":{"id":"11","nom":"Arnaud","prenom":"Nadine","email":"arnaud.nadine@neuf.fr","adresse":"43 Rue \u00c9lis\u00e9e Reclus","ville":"Unieux","latitude":"45.3938485","longitude":"4.2774721","is_client":"1","id_client":"9570","code_postal":"42240"},"Civilite":{"title":"Mme"},"Client":{"region_id":"4"},"domaine":{"#fe7beb":"Ma\u00eetre Praticien en Hypnose Ericksonienne","#b457df":"Praticien en Anneau Gastrique Hypnotique","#006ef5":"Praticien en PNL","#33e3ff":"Fundamental Coaching Skills","#a59394":"Praticien en Deep Neural Repatterning"}},{"AdherentsSuph":{"id":"12","nom":"Athimon","prenom":"Philippe","email":"philippe.athimon@gmail.com","adresse":"151 bis rue du G\u00e9n\u00e9ral Leclerc - 2 r\u00e9sidence Flore","ville":"Andresy","latitude":"48.979048","longitude":"2.051033","is_client":"1","id_client":"6085","code_postal":"78570"},"Civilite":{"title":"M."},"Client":{"region_id":"7"},"domaine":{"#b457df":"Praticien en hypnose spirituelle","#fe7beb":"Ma\u00eetre Praticien en Hypnose Ericksonienne","#0069cc":"Praticien en PNL","#a59394":"Praticien en Deep Neural Repatterning","#412a2a":"Psycho-Pathologie","#f9436c":"Speed Hypnose"}},{"AdherentsSuph":{"id":"13","nom":"AZIZI","prenom":"MEHDI","email":"mehdi-azizi@live.fr","adresse":"160 AVENUE JEAN JAURES","ville":"MONTFERMEIL","latitude":"48.8986659","longitude":"2.5520979","is_client":"1","id_client":"11404","code_postal":"93370"},"Civilite":{"title":"M."},"Client":{"region_id":"7"},"domaine":{"#fe7beb":"Praticien en Hypnose Ericksonienne"}},{"AdherentsSuph":{"id":"14","nom":"Ballarati Mestre","prenom":"Myriam","email":"myriam.ballarati@gmail.com","adresse":"54, Avenue du Mar\u00e9chal Foch","ville":"Houilles","latitude":"48.9234333","longitude":"2.1941627","is_client":"1","id_client":"8391","code_postal":"78800"},"Civilite":{"title":"Mme"},"Client":{"region_id":"7"},"domaine":{"#0069cc":"Praticien en PNL","#fe7beb":"Ma\u00eetre Praticien en Hypnose Ericksonienne","#0000ff":"Ma\u00eetre-praticien en PNL","#33e3ff":"Fundamental Coaching Skills","#f9436c":"Speed Hypnose","#2ec26b":"Th\u00e9rapie br\u00e8ve Base Syst\u00e9mique","#b457df":"Praticien en hypnose spirituelle","#a59394":"Praticien en Deep Neural Repatterning"}},{"AdherentsSuph":{"id":"19","nom":"Baujard","prenom":"Delphine","email":"delphine.baujard@hotmail.fr","adresse":"28 Chemin Delgr\u00e8s 3 R\u00e9sidence Joanti","ville":"Trois Rivi\u00e8res","latitude":"44.4483419","longitude":"0.617057","is_client":"1","id_client":"10272","code_postal":"97114"},"Civilite":{"title":"Mme"},"Client":{"region_id":"3"},"domaine":{"#fe7beb":"Praticien en Hypnose Ericksonienne","#b457df":"Praticien en hypnose spirituelle"}},{"AdherentsSuph":{"id":"20","nom":"Baumont Mary","prenom":"C\u00e9cile","email":"sapajoue@gmail.com","adresse":"335 Route du Village","ville":"Savas-Mepin","latitude":"45.4888957","longitude":"5.0691148","is_client":"1","id_client":"11528","code_postal":"38440"},"Civilite":{"title":"Mme"},"Client":{"region_id":"4"},"domaine":{"#a59394":"Praticien en Deep Neural Repatterning","#fe7beb":"Enseignant en Hypnose","#b457df":"Sp\u00e9cialiste en Perte de poids et Arr\u00eat du tabac","#0069cc":"Praticien en PNL","#ea8a10":"Praticien en Hypno-Magn\u00e9tisme","#0000ff":"Ma\u00eetre-praticien en PNL","#5c8199":"Enseignant en Programmation Neuro-Linguistique"}},{"AdherentsSuph":{"id":"22","nom":"Beauchamp","prenom":"Laura","email":"laurabeauchamp@live.fr","adresse":"51 Rue Marceau","ville":"Montreuil","latitude":"48.8537964","longitude":"2.4261036","is_client":"1","id_client":"10819","code_postal":"93100"},"Civilite":{"title":"Mme"},"Client":{"region_id":"7"},"domaine":{"#fe7beb":"Praticien en Hypnose Ericksonienne","#b457df":"Praticien Hypno-Baby","#412a2a":"Psycho-Pathologie","#33e3ff":"Fundamental Coaching Skills","#006ef5":"Praticien en PNL","#a59394":"Praticien en Deep Neural Repatterning"}},{"AdherentsSuph":{"id":"24","nom":"Beaussart","prenom":"Thomas","email":"thomasbeaussart@hotmail.fr","adresse":"13 Avenue Gaug\u00e9","ville":"Viroflay","latitude":"48.8070214","longitude":"2.1668446","is_client":"1","id_client":"6973","code_postal":"78220"},"Civilite":{"title":"M."},"Client":{"region_id":"7"},"domaine":{"#b457df":"Hypnose pour les enfants","#fe7beb":"Praticien en Hypnose Ericksonienne","#347132":"Coach Certifi\u00e9 ICI","#0069cc":"Praticien en PNL","#0000ff":"Ma\u00eetre-praticien en PNL","#f9436c":"Speed Hypnose"}},{"AdherentsSuph":{"id":"29","nom":"Bergeret","prenom":"Alice","email":"alice.bergeret@free.fr","adresse":"22, Bd de l'Europe","ville":"Pierre-B\u00e9nite","latitude":"45.7063854","longitude":"4.8206878","is_client":"1","id_client":"10802","code_postal":"69310"},"Civilite":{"title":"Mme"},"Client":{"region_id":"4"},"domaine":{"#fe7beb":"Praticien en Hypnose Ericksonienne","#f9436c":"Speed Hypnose"}},{"AdherentsSuph":{"id":"31","nom":"Bertaux","prenom":"Christina","email":"christina.bertaux@orange.fr","adresse":"14 LD Les Chailles de Bignac","ville":"Chamadelle","latitude":"45.0870372","longitude":"-0.0831471","is_client":"1","id_client":"12679","code_postal":"33230"},"Civilite":{"title":"Mme"},"Client":{"region_id":"6"},"domaine":{"#fe7beb":"Praticien en Hypnose Ericksonienne","#b457df":"Sp\u00e9cialiste en Hypnose Hyperemperia","#0069cc":"Praticien en PNL","#33e3ff":"Fundamental Coaching Skills","#2ec26b":"Th\u00e9rapie br\u00e8ve Base Syst\u00e9mique"}},{"AdherentsSuph":{"id":"32","nom":"Berthomier","prenom":"Coraline","email":"coralinepsychologue@gmail.com","adresse":"27 Impasse Bonamour","ville":"Vichy","latitude":"46.1321829","longitude":"3.4260085","is_client":"1","id_client":"10681","code_postal":"03200"},"Civilite":{"title":"Mme"},"Client":{"region_id":"4"},"domaine":{"#fe7beb":"Ma\u00eetre Praticien en Hypnose Ericksonienne","#f9436c":"Speed Hypnose"}},{"AdherentsSuph":{"id":"33","nom":"Besse","prenom":"Gabriel","email":"gabriel.besse@gmail.com","adresse":"28 Cours du G\u00e9n\u00e9ral De Gaulle","ville":"Gradignan","latitude":"44.7855186","longitude":"-0.6052127","is_client":"1","id_client":"9507","code_postal":"33170"},"Civilite":{"title":"M."},"Client":{"region_id":"6"},"domaine":{"#fe7beb":"Praticien en Hypnose Ericksonienne"}},{"AdherentsSuph":{"id":"35","nom":"Blanchard","prenom":"Romain","email":"sarl.aadeh@gmail.com","adresse":"1 rue Beno\u00eet marcet","ville":"Saint-chamond","latitude":"45.4639765","longitude":"4.4982016","is_client":"1","id_client":"12432","code_postal":"42400"},"Civilite":{"title":"M."},"Client":{"region_id":"4"},"domaine":{"#fe7beb":"Praticien en Hypnose Ericksonienne"}},{"AdherentsSuph":{"id":"37","nom":"BONNARD","prenom":"Denise","email":"denise.bonnard@wanadoo.fr","adresse":"L'Ordillat, Route de Saint Honor\u00e9 les Bains","ville":"SEMELAY","latitude":"46.86176","longitude":"3.8496805","is_client":"1","id_client":"9322","code_postal":"58360"},"Civilite":{"title":"Mme"},"Client":{"region_id":"4"},"domaine":{"#fe7beb":"Praticien en Hypnose Ericksonienne"}},{"AdherentsSuph":{"id":"39","nom":"Boudinet","prenom":"Florine","email":"boudinetflorine@hotmail.com","adresse":"1076 Kereuneut Izella","ville":"Plougastel Daoulas","latitude":"48.374051","longitude":"-4.369108","is_client":"1","id_client":"7425","code_postal":"29470"},"Civilite":{"title":"Mme"},"Client":{"region_id":"3"},"domaine":{"#412a2a":"Psycho-Pathologie","#006ef5":"Praticien en PNL","#fe7beb":"Praticien en Hypnose Ericksonienne","#33e3ff":"Fundamental Coaching Skills","#2ec26b":"Th\u00e9rapie br\u00e8ve Base Syst\u00e9mique","#19947c":"Praticien en Th\u00e9rapie Br\u00e8ve","#e60505":"Praticien en Sexoth\u00e9rapie"}},{"AdherentsSuph":{"id":"40","nom":"Boufira","prenom":"Fatima","email":"fboufira@laposte.net","adresse":"16 Rue du Ch\u00e2teau","ville":"St Leu La For\u00eat","latitude":"49.0177251","longitude":"2.2467661","is_client":"1","id_client":"6462","code_postal":"95320"},"Civilite":{"title":"Mme"},"Client":{"region_id":"7"},"domaine":{"#fe7beb":"Praticien en Hypnose Ericksonienne","#b457df":"Sp\u00e9cialiste en Perte de poids et Arr\u00eat du tabac","#0069cc":"Praticien en PNL"}},{"AdherentsSuph":{"id":"41","nom":"Bouygues","prenom":"Catherine","email":"cathybouygues@hotmail.fr","adresse":"1 place de Ceran  MEYSSAC","ville":"MEYSSAC","latitude":"45.055925","longitude":"1.674352","is_client":"1","id_client":"9490","code_postal":"19500"},"Civilite":{"title":"Mme"},"Client":{"region_id":"6"},"domaine":{"#fe7beb":"Ma\u00eetre Praticien en Hypnose Ericksonienne","#b457df":"Sp\u00e9cialiste en Perte de poids et Arr\u00eat du tabac","#0069cc":"Praticien en PNL","#0000ff":"Ma\u00eetre-praticien en PNL","#2ec26b":"Th\u00e9rapie br\u00e8ve Base Syst\u00e9mique","#f9436c":"Speed Hypnose"}},{"AdherentsSuph":{"id":"42","nom":"Brahmi","prenom":"Daniel","email":"dbrahmi@free.fr","adresse":"7 Rue Carnot","ville":"Poitiers","latitude":"46.5794489","longitude":"0.339293","is_client":"1","id_client":"10631","code_postal":"86000"},"Civilite":{"title":"M."},"Client":{"region_id":"7"},"domaine":{"#fe7beb":"Praticien en Hypnose Ericksonienne","#0069cc":"Praticien en PNL","#b457df":"Hypnose pour les enfants","#f9436c":"Speed Hypnose","#ea8a10":"Praticien en Hypno-Magn\u00e9tisme"}},{"AdherentsSuph":{"id":"43","nom":"Breysse","prenom":"Philippe","email":"breysse.philippe@wanadoo.fr","adresse":"52 rue Gambetta","ville":"Firminy","latitude":"45.3909511","longitude":"4.2899653","is_client":"1","id_client":"7282","code_postal":"42700"},"Civilite":{"title":"M."},"Client":{"region_id":"4"},"domaine":{"#fe7beb":"Praticien en Hypnose Ericksonienne","#b457df":"Praticien en hypnose spirituelle"}},{"AdherentsSuph":{"id":"44","nom":"Briand","prenom":"Danielle","email":"daniellebriand@free.fr","adresse":"7 rue granoux","ville":"Marseille","latitude":"43.298822","longitude":"5.3983666","is_client":"1","id_client":"5013","code_postal":"13004"},"Civilite":{"title":"Mme"},"Client":{"region_id":"17"},"domaine":{"#fe7beb":"Praticien en Hypnose Ericksonienne","#33e3ff":"Fundamental Coaching Skills","#006ef5":"Praticien en PNL"}},{"AdherentsSuph":{"id":"45","nom":"Brice","prenom":"Florence","email":"briceflorence@hotmail.fr","adresse":"4 Rue du Pr\u00e9-Pigeon","ville":"Angers","latitude":"47.4781822","longitude":"-0.5435955","is_client":"1","id_client":"11122","code_postal":"49100"},"Civilite":{"title":"Mme"},"Client":{"region_id":"7"},"domaine":{"#a59394":"Praticien en Deep Neural Repatterning","#fe7beb":"Praticien en Hypnose Ericksonienne","#b457df":"Praticien en hypnose spirituelle"}},{"AdherentsSuph":{"id":"46","nom":"Brisson","prenom":"Anne","email":"annebrissonnoel@yahoo.fr","adresse":"21 Rue des Binelles","ville":"Sevres","latitude":"48.8225216","longitude":"2.218401","is_client":"1","id_client":"8287","code_postal":"92310"},"Civilite":{"title":"Mme"},"Client":{"region_id":"7"},"domaine":{"#b457df":"Hypno-Analg\u00e9sie","#f9436c":"Speed Hypnose","#412a2a":"Psycho-Pathologie"}},{"AdherentsSuph":{"id":"47","nom":"Buhler","prenom":"Vincent","email":"vincbuhler@gmail.com","adresse":"36 Rue Elie Rochette","ville":"Lyon","latitude":"45.7475578","longitude":"4.8437781","is_client":"1","id_client":"9747","code_postal":"69007"},"Civilite":{"title":"M."},"Client":{"region_id":"4"},"domaine":{"#fe7beb":"Praticien en Hypnose Ericksonienne"}},{"AdherentsSuph":{"id":"48","nom":"Cacheux","prenom":"Nathalie","email":"nathaliecacheux@orange.fr","adresse":"24 Rue Louis-Charles Vernin","ville":"Melun","latitude":"48.5328642","longitude":"2.6620268","is_client":"1","id_client":"11512","code_postal":"77000"},"Civilite":{"title":"Mme"},"Client":{"region_id":"7"},"domaine":{"#b457df":"Praticien en hypnose spirituelle","#fe7beb":"Ma\u00eetre Praticien en Hypnose Ericksonienne","#0069cc":"Praticien en PNL","#f9436c":"Speed Hypnose","#2ec26b":"Th\u00e9rapie br\u00e8ve Base Syst\u00e9mique","#19947c":"Praticien en Th\u00e9rapie Familiale et conjugale","#a59394":"Praticien en Deep Neural Repatterning","#412a2a":"Psycho-Pathologie","#0000ff":"Ma\u00eetre-praticien en PNL","#ea8a10":"Praticien en Hypno-Magn\u00e9tisme","#347132":"Coach Certifi\u00e9 ICI","#5c8199":"Enseignant en Programmation Neuro-Linguistique"}},{"AdherentsSuph":{"id":"50","nom":"Calla-Gomez","prenom":"St\u00e9phanie","email":"stephanie.callagomez@free.fr","adresse":"12 Rue Pelletier","ville":"Lyon","latitude":"45.7778719","longitude":"4.8280988","is_client":"1","id_client":"8065","code_postal":"69004"},"Civilite":{"title":"Mme"},"Client":{"region_id":"4"},"domaine":{"#fe7beb":"Ma\u00eetre Praticien en Hypnose Ericksonienne","#b457df":"Sp\u00e9cialiste en Perte de poids et Arr\u00eat du tabac","#33e3ff":"Fundamental Coaching Skills"}},{"AdherentsSuph":{"id":"52","nom":"Cantier","prenom":"Fr\u00e9d\u00e9ric","email":"frederic.cantier@orange.fr","adresse":"16 rambla de l occitanie","ville":"Perpignan","latitude":"42.682555","longitude":"2.908058","is_client":"1","id_client":"5182","code_postal":"66100"},"Civilite":{"title":"M."},"Client":{"region_id":"7"},"domaine":{"#33e3ff":"Fundamental Coaching Skills","#006ef5":"Praticien en PNL","#fe7beb":"Ma\u00eetre Praticien en Hypnose Ericksonienne","#0000ff":"Ma\u00eetre-praticien en PNL","#b457df":"Praticien en hypnose spirituelle","#a59394":"Praticien en Deep Neural Repatterning"}},{"AdherentsSuph":{"id":"53","nom":"Caron","prenom":"Sylvie","email":"grainedebeaute1@bbox.fr","adresse":"17 Route Matinale","ville":"Marquion","latitude":"50.210227","longitude":"3.085243","is_client":"1","id_client":"10628","code_postal":"62860"},"Civilite":{"title":"Mme"},"Client":{"region_id":"9"},"domaine":{"#fe7beb":"Ma\u00eetre Praticien en Hypnose Ericksonienne","#f9436c":"Speed Hypnose","#b457df":"Sp\u00e9cialiste en Perte de poids et Arr\u00eat du tabac"}},{"AdherentsSuph":{"id":"54","nom":"Carron-Pugnere","prenom":"Nadia","email":"nadia.pugnere@gmail.com","adresse":"37 Rue Servient","ville":"Lyon","latitude":"45.760284","longitude":"4.8447349","is_client":"1","id_client":"11531","code_postal":"69003"},"Civilite":{"title":"Mme"},"Client":{"region_id":"4"},"domaine":{"#fe7beb":"Praticien en Hypnose Ericksonienne"}},{"AdherentsSuph":{"id":"55","nom":"Catanzariti","prenom":"Carine","email":"carinecatan@outlook.fr","adresse":"17 Place Du Mar\u00e9chal Leclerc","ville":"Lille","latitude":"50.6281586","longitude":"3.0430511","is_client":"1","id_client":"10056","code_postal":"59800"},"Civilite":{"title":"Mme"},"Client":{"region_id":"9"},"domaine":{"#33e3ff":"Fundamental Coaching Skills","#006ef5":"Praticien en PNL","#fe7beb":"Praticien en Hypnose Ericksonienne"}},{"AdherentsSuph":{"id":"56","nom":"Caustier","prenom":"Jean-Charles","email":"jc.caustier@gmail.com","adresse":"23 Avenue Charles De Gaulle","ville":"Aix-Les-Bains","latitude":"45.6878284","longitude":"5.9117908","is_client":"1","id_client":"2102","code_postal":"73100"},"Civilite":{"title":"M."},"Client":{"region_id":"7"},"domaine":{"#0069cc":"Praticien en PNL","#0000ff":"Ma\u00eetre-praticien en PNL","#fe7beb":"Ma\u00eetre Praticien en Hypnose Ericksonienne","#b457df":"Praticien en hypnose spirituelle"}},{"AdherentsSuph":{"id":"57","nom":"Celeste Delaunay-Belleville","prenom":"Suzanne","email":"susandelaunayb@gmail.com","adresse":"Res Edictys Bat B Porte 14 -02 Av des Paradisiers","ville":"Fort de France","latitude":"14.6250575","longitude":"-61.0804494","is_client":"1","id_client":"11351","code_postal":"97200"},"Civilite":{"title":"Mme"},"Client":{"region_id":"13"},"domaine":{"#fe7beb":"Ma\u00eetre Praticien en Hypnose Ericksonienne","#0069cc":"Praticien en PNL","#b457df":"Hypnose pour les enfants"}},{"AdherentsSuph":{"id":"58","nom":"Chabrier","prenom":"Nadia","email":"aux4vents2@wanadoo.fr","adresse":"100 Impasse du Clos","ville":"St Cyr les Vignes","latitude":"45.6875497","longitude":"4.3085116","is_client":"1","id_client":"10851","code_postal":"42210"},"Civilite":{"title":"Mme"},"Client":{"region_id":"4"},"domaine":{"#fe7beb":"Praticien en Hypnose Ericksonienne","#0069cc":"Praticien en PNL","#b457df":"Sp\u00e9cialiste en Perte de poids et Arr\u00eat du tabac"}},{"AdherentsSuph":{"id":"59","nom":"Charnac\u00e9","prenom":"Thierry","email":"thierry.charnace@gmail.com","adresse":"21, Rue Artzamendi Quartier du Lac","ville":"Saint P\u00e9e s\/ Nivelle","latitude":"43.345358","longitude":"-1.5275313","is_client":"1","id_client":"9498","code_postal":"64310"},"Civilite":{"title":"M."},"Client":{"region_id":"6"},"domaine":{"#2ec26b":"Th\u00e9rapie br\u00e8ve Base Syst\u00e9mique","#19947c":"Praticien en Th\u00e9rapie Br\u00e8ve","#fe7beb":"Praticien en Hypnose Ericksonienne","#33e3ff":"Fundamental Coaching Skills","#006ef5":"Praticien en PNL"}},{"AdherentsSuph":{"id":"62","nom":"Chaulet","prenom":"Katia","email":"kat.chaulet@gmail.com","adresse":"R\u00e9sidence Le Clos de Lise  Appartement 59, 1 Rue Pablo Picasso","ville":"Saint Seurin Sur l'Isle","latitude":"45.014104","longitude":"-0.001502","is_client":"1","id_client":"6663","code_postal":"33660"},"Civilite":{"title":"Mme"},"Client":{"region_id":"6"},"domaine":{"#fe7beb":"Ma\u00eetre Praticien en Hypnose Ericksonienne"}},{"AdherentsSuph":{"id":"65","nom":"Chevallier","prenom":"Christian","email":"chevallier.christian@gmail.com","adresse":"14 Rue Moli\u00e8re","ville":"Bourgoin-Jallieu","latitude":"45.5911002","longitude":"5.2827419","is_client":"1","id_client":"12466","code_postal":"38300"},"Civilite":{"title":"M."},"Client":{"region_id":"4"},"domaine":{"#fe7beb":"Praticien en Hypnose Ericksonienne","#f9436c":"Speed Hypnose","#b457df":"Praticien en hypnose spirituelle","#ea8a10":"Praticien en Hypno-Magn\u00e9tisme"}},{"AdherentsSuph":{"id":"67","nom":"Codron","prenom":"Jean-Marie","email":"jmcodron@gmail.com","adresse":"Hall 3 22 avenue de Saint Mand\u00e9","ville":"Paris","latitude":"48.8449689","longitude":"2.398775","is_client":"1","id_client":"2082","code_postal":"75012"},"Civilite":{"title":"M."},"Client":{"region_id":"7"},"domaine":{"#fe7beb":"Praticien en Hypnose Ericksonienne","#a59394":"Praticien en Deep Neural Repatterning"}},{"AdherentsSuph":{"id":"69","nom":"Comte","prenom":"Cl\u00e9mentine","email":"clementine.carnevali@laposte.net","adresse":"Le Grand L'Air","ville":"Landes","latitude":"46.0173739","longitude":"-0.606298","is_client":"1","id_client":"12328","code_postal":"17380"},"Civilite":{"title":"Mme"},"Client":{"region_id":"6"},"domaine":{"#fe7beb":"Enseignant en Hypnose","#f9436c":"Speed Hypnose","#b457df":"Praticien en hypnose spirituelle","#0069cc":"Praticien en PNL","#0000ff":"Ma\u00eetre-praticien en PNL","#5c8199":"Enseignant en Programmation Neuro-Linguistique","#a59394":"Praticien en Deep Neural Repatterning"}},{"AdherentsSuph":{"id":"70","nom":"Condamines","prenom":"Julie","email":"julie.condamines@live.fr","adresse":"10 boulevard de la gribelette","ville":"Morsang sur Orge","latitude":"48.645189","longitude":"2.348447","is_client":"1","id_client":"11168","code_postal":"91390"},"Civilite":{"title":"Mme"},"Client":{"region_id":"7"},"domaine":{"#fe7beb":"Ma\u00eetre Praticien en Hypnose Ericksonienne","#412a2a":"Psycho-Pathologie","#ebdd2d":"Hypno-Sophrologue"}},{"AdherentsSuph":{"id":"73","nom":"Cosson","prenom":"St\u00e9phanie","email":"casteva@orange.fr","adresse":"14 Rue Pierre Henri Simon","ville":"Saujon","latitude":"45.6830873","longitude":"-0.9278351","is_client":"1","id_client":"9211","code_postal":"17600"},"Civilite":{"title":"Mme"},"Client":{"region_id":"6"},"domaine":{"#f9436c":"Speed Hypnose","#fe7beb":"Ma\u00eetre Praticien en Hypnose Ericksonienne","#b457df":"Hypno-Analg\u00e9sie","#e60505":"Praticien en Sexoth\u00e9rapie"}},{"AdherentsSuph":{"id":"75","nom":"Cottier","prenom":"S\u00e9bastien","email":"sebcot.m@orange.fr","adresse":"90 Avenue de Mazargues Batiment C","ville":"Marseille","latitude":"43.2668743","longitude":"5.3893194","is_client":"1","id_client":"13130","code_postal":"13008"},"Civilite":{"title":"M."},"Client":{"region_id":"17"},"domaine":{"#fe7beb":"Praticien en Hypnose Ericksonienne"}},{"AdherentsSuph":{"id":"76","nom":"Coudert","prenom":"St\u00e9phane","email":"coudert@laposte.net","adresse":"366 Chemin des Bouches","ville":"Noyarey","latitude":"45.2436257","longitude":"5.6320371","is_client":"1","id_client":"11027","code_postal":"38360"},"Civilite":{"title":"M."},"Client":{"region_id":"4"},"domaine":{"#fe7beb":"Praticien en Hypnose Ericksonienne","#0069cc":"Praticien en PNL"}},{"AdherentsSuph":{"id":"78","nom":"Croce","prenom":"Sofia Rosa","email":"sofiarcroce@gmail.com","adresse":"41 Avenue du Maine","ville":"Paris","latitude":"48.8410433","longitude":"2.3218405","is_client":"1","id_client":"10708","code_postal":"75014"},"Civilite":{"title":"Mme"},"Client":{"region_id":"7"},"domaine":{"#b457df":"Hypno-Analg\u00e9sie","#fe7beb":"Ma\u00eetre Praticien en Hypnose Ericksonienne","#412a2a":"Psycho-Pathologie","#0069cc":"Praticien en PNL","#a59394":"Praticien en Deep Neural Repatterning","#ea8a10":"Praticien en Hypno-Magn\u00e9tisme","#0000ff":"Ma\u00eetre-praticien en PNL","#347132":"Coach Certifi\u00e9 ICI"}},{"AdherentsSuph":{"id":"79","nom":"Dagnelies","prenom":"Patricia","email":"pjldagnelies@yahoo.fr","adresse":"23 rue Henri Vincenot","ville":"Chatenoy Le Royal","latitude":"46.7992959","longitude":"4.85439","is_client":"1","id_client":"8824","code_postal":"71880"},"Civilite":{"title":"Mme"},"Client":{"region_id":"4"},"domaine":{"#fe7beb":"Praticien en Hypnose Ericksonienne","#b457df":"Praticien en hypnose spirituelle","#0069cc":"Praticien en PNL","#33e3ff":"Fundamental Coaching Skills","#ea8a10":"Praticien en Hypno-Magn\u00e9tisme","#412a2a":"Psycho-Pathologie"}},{"AdherentsSuph":{"id":"81","nom":"Dallard","prenom":"St\u00e9phanie","email":"s.dallard@orange.fr","adresse":"La Garenne","ville":"Saint Laurent du Pape","latitude":"44.8254124","longitude":"4.7622514","is_client":"1","id_client":"6482","code_postal":"07000"},"Civilite":{"title":"Mme"},"Client":{"region_id":"4"},"domaine":{"#fe7beb":"Ma\u00eetre Praticien en Hypnose Ericksonienne","#b457df":"Praticien en Anneau Gastrique Hypnotique","#f9436c":"Speed Hypnose","#0069cc":"Praticien en PNL","#347132":"Coach Certifi\u00e9 ICI"}},{"AdherentsSuph":{"id":"84","nom":"Darrius","prenom":"V\u00e9ronique","email":"veronique.darrius@wanadoo.fr","adresse":"58, rue Jules Perrens","ville":"Bordeaux","latitude":"44.820309","longitude":"-0.5630736","is_client":"1","id_client":"13926","code_postal":"33800"},"Civilite":{"title":"Mme"},"Client":{"region_id":"6"},"domaine":{"#fe7beb":"Praticien en Hypnose Ericksonienne","#b457df":"Sp\u00e9cialiste en Perte de poids et Arr\u00eat du tabac","#412a2a":"Psycho-Pathologie"}},{"AdherentsSuph":{"id":"85","nom":"Daussan","prenom":"Corinne","email":"daussan.corinne@wanadoo.fr","adresse":"28 Cours des Dames","ville":"La Rochelle","latitude":"46.1571949","longitude":"-1.1540406","is_client":"1","id_client":"9787","code_postal":"17000"},"Civilite":{"title":"Mme"},"Client":{"region_id":"6"},"domaine":{"#fe7beb":"Praticien en Hypnose Ericksonienne","#0069cc":"Praticien en PNL","#f9436c":"Speed Hypnose"}},{"AdherentsSuph":{"id":"86","nom":"Dausse-Kluger","prenom":"D\u00e9borah","email":"deborahdaussekluger@gmail.com","adresse":"8 rue Edouard Fortun\u00e9 de Bade","ville":"Rodemack","latitude":"49.4723734","longitude":"6.2333095","is_client":"1","id_client":"8447","code_postal":"57570"},"Civilite":{"title":"Mme"},"Client":{"region_id":"8"},"domaine":{"#fe7beb":"Praticien en Hypnose Ericksonienne","#b457df":"Sp\u00e9cialiste en Hypnose Hyperemperia"}},{"AdherentsSuph":{"id":"87","nom":"De La Calle","prenom":"Jacques","email":"jacques.delacalle@wanadoo.fr","adresse":"362 Route de Villaudric","ville":"Castelnau d'Estr\u00e8tefonds","latitude":"43.8161454","longitude":"1.3916525","is_client":"1","id_client":"8707","code_postal":"31620"},"Civilite":{"title":"M."},"Client":{"region_id":"24"},"domaine":{"#fe7beb":"Ma\u00eetre Praticien en Hypnose Ericksonienne","#b457df":"Praticien en hypnose spirituelle","#0069cc":"Praticien en PNL","#33e3ff":"Fundamental Coaching Skills"}},{"AdherentsSuph":{"id":"88","nom":"De Lasteyrie","prenom":"Gr\u00e9goire","email":"saillant@gmail.com","adresse":"04 avenue de Villiers","ville":"Paris","latitude":"48.8815432","longitude":"2.315701","is_client":"1","id_client":"8873","code_postal":"75017"},"Civilite":{"title":"M."},"Client":{"region_id":"7"},"domaine":{"#fe7beb":"Enseignant en Hypnose","#0069cc":"Praticien en PNL","#0000ff":"Ma\u00eetre-praticien en PNL","#5c8199":"Enseignant en Programmation Neuro-Linguistique","#347132":"Coach Certifi\u00e9 ICI"}},{"AdherentsSuph":{"id":"90","nom":"Debonne","prenom":"Christelle","email":"cdebonne@hotmail.com","adresse":"136 route de st omer","ville":"St Martin Boulogne","latitude":"50.7251693","longitude":"1.6292383","is_client":"1","id_client":"11144","code_postal":"62280"},"Civilite":{"title":"Mme"},"Client":{"region_id":"9"},"domaine":{"#33e3ff":"Fundamental Coaching Skills","#0069cc":"Praticien en PNL","#a59394":"Praticien en Deep Neural Repatterning","#fe7beb":"Praticien en Hypnose Ericksonienne","#19947c":"Praticien en Th\u00e9rapie Br\u00e8ve","#412a2a":"Psycho-Pathologie","#b457df":"Hypno-Analg\u00e9sie"}},{"AdherentsSuph":{"id":"91","nom":"Decorsier","prenom":"Thierry","email":"decorsier@orange.fr","adresse":"4 Rue Fontfaud","ville":"Gannat","latitude":"46.0967737","longitude":"3.1982752","is_client":"1","id_client":"10579","code_postal":"03800"},"Civilite":{"title":"M."},"Client":{"region_id":"4"},"domaine":{"#fe7beb":"Praticien en Hypnose Ericksonienne"}},{"AdherentsSuph":{"id":"92","nom":"Decrenisse","prenom":"Elisabeth","email":"elisabeth2212@hotmail.fr","adresse":"21 Impasse Sully","ville":"Valence","latitude":"44.9403052","longitude":"4.9034854","is_client":"1","id_client":"10589","code_postal":"26000"},"Civilite":{"title":"Mme"},"Client":{"region_id":"4"},"domaine":{"#fe7beb":"Praticien en Hypnose Ericksonienne","#b457df":"Sp\u00e9cialiste en Perte de poids et Arr\u00eat du tabac"}},{"AdherentsSuph":{"id":"94","nom":"Dehaudt","prenom":"Valentine","email":"valentine.dehaudt@hotmail.fr","adresse":"6 Arnouldstraete","ville":"Bailleul","latitude":"50.7362377","longitude":"2.7356338","is_client":"1","id_client":"10739","code_postal":"59270"},"Civilite":{"title":"Mme"},"Client":{"region_id":"9"},"domaine":{"#fe7beb":"Praticien en Hypnose Ericksonienne"}},{"AdherentsSuph":{"id":"95","nom":"Deida-Gouinguenet","prenom":"Farah","email":"deida.farah@gmail.com","adresse":"27 quai Carnot","ville":"Concarneau","latitude":"47.8757612","longitude":"-3.9149385","is_client":"1","id_client":"11356","code_postal":"29900"},"Civilite":{"title":"Mme"},"Client":{"region_id":"3"},"domaine":{"#fe7beb":"Praticien en Hypnose Ericksonienne","#f9436c":"Speed Hypnose","#2ec26b":"Th\u00e9rapie br\u00e8ve Base Syst\u00e9mique"}},{"AdherentsSuph":{"id":"96","nom":"Dejey","prenom":"Magalie","email":"magalie.dejey@numericable.com","adresse":"123 Place de Cholet","ville":"Colombier Saugnieu","latitude":"45.7247908","longitude":"5.1071602","is_client":"1","id_client":"10715","code_postal":"69124"},"Civilite":{"title":"Mme"},"Client":{"region_id":"4"},"domaine":{"#0069cc":"Praticien en PNL","#0000ff":"Ma\u00eetre-praticien en PNL"}},{"AdherentsSuph":{"id":"97","nom":"Delamare-Legros","prenom":"Delphine","email":"delphine.delamare@live.fr","adresse":"Travessa do monte 7","ville":"Lisbonne","latitude":"38.7185815","longitude":"-9.130235","is_client":"1","id_client":"8763","code_postal":"1170-254"},"Civilite":{"title":"Mme"},"Client":{"region_id":"17"},"domaine":{"#fe7beb":"Ma\u00eetre Praticien en Hypnose Ericksonienne","#33e3ff":"Fundamental Coaching Skills","#006ef5":"Praticien en PNL","#b457df":"Sp\u00e9cialiste en Hypnose Hyperemperia","#a59394":"Praticien en Deep Neural Repatterning","#f9436c":"Speed Hypnose","#2ec26b":"Th\u00e9rapie br\u00e8ve Base Syst\u00e9mique"}},{"AdherentsSuph":{"id":"98","nom":"Delavallade","prenom":"Tiphaine","email":"tiphyplus@gmail.com","adresse":"15 avenue Gabriel Faur\u00e9","ville":"Thorign\u00e9","latitude":"48.1563192","longitude":"-1.5861629","is_client":"1","id_client":"9935","code_postal":"35235"},"Civilite":{"title":"Mme"},"Client":{"region_id":"3"},"domaine":{"#fe7beb":"Praticien en Hypnose Ericksonienne","#33e3ff":"Fundamental Coaching Skills","#006ef5":"Praticien en PNL","#b457df":"Praticien en hypnose spirituelle"}},{"AdherentsSuph":{"id":"99","nom":"Delbecq","prenom":"Cathie","email":"delbecq.cathie@gmail.com","adresse":"28 Rue de la Pilaterie","ville":"Marcq en Baroeul","latitude":"50.658813","longitude":"3.1074489","is_client":"1","id_client":"8019","code_postal":"59700"},"Civilite":{"title":"Mme"},"Client":{"region_id":"9"},"domaine":{"#fe7beb":"Ma\u00eetre Praticien en Hypnose Ericksonienne","#33e3ff":"Fundamental Coaching Skills","#006ef5":"Praticien en PNL","#b457df":"Praticien en hypnose spirituelle","#e60505":"Praticien en Sexoth\u00e9rapie","#0000ff":"Ma\u00eetre-praticien en PNL","#b41d45":"Ma\u00eetre Praticien en Sexoth\u00e9rapie"}},{"AdherentsSuph":{"id":"102","nom":"Delva","prenom":"Christophe","email":"cndelva@aol.com","adresse":"35 All\u00e9e du Vivier","ville":"Ville de Jarnioux","latitude":"45.9621216","longitude":"4.6054542","is_client":"1","id_client":"8033","code_postal":"69640"},"Civilite":{"title":"M."},"Client":{"region_id":"4"},"domaine":{"#006ef5":"Praticien en PNL","#33e3ff":"Fundamental Coaching Skills","#f9436c":"Speed Hypnose","#a59394":"Praticien en Deep Neural Repatterning","#fe7beb":"Ma\u00eetre Praticien en Hypnose Ericksonienne","#b457df":"Praticien en Anneau Gastrique Hypnotique","#0000ff":"Ma\u00eetre-praticien en PNL"}},{"AdherentsSuph":{"id":"103","nom":"Denost","prenom":"Morgane","email":"mddmorgane@gmail.com","adresse":"R\u00e9sidence le Parc de B\u00e9atrice  18 Rue de Guirauton  Appt 11","ville":"M\u00e9rignac","latitude":"44.8371029","longitude":"-0.6652542","is_client":"1","id_client":"11238","code_postal":"33700"},"Civilite":{"title":"Mme"},"Client":{"region_id":"6"},"domaine":{"#33e3ff":"Fundamental Coaching Skills","#fe7beb":"Praticien en Hypnose Ericksonienne","#a59394":"Praticien en Deep Neural Repatterning","#0069cc":"Praticien en PNL","#412a2a":"Psycho-Pathologie","#b457df":"Praticien en Anneau Gastrique Hypnotique","#0000ff":"Ma\u00eetre-praticien en PNL"}},{"AdherentsSuph":{"id":"104","nom":"Desages","prenom":"Isabelle","email":"rea.isabelle.desages@gmail.com","adresse":"12 Rue Pierre Brossolette","ville":"Grigny","latitude":"48.6587055","longitude":"2.388582","is_client":"1","id_client":"9766","code_postal":"91350"},"Civilite":{"title":"Mme"},"Client":{"region_id":"6"},"domaine":{"#fe7beb":"Praticien en Hypnose Ericksonienne"}},{"AdherentsSuph":{"id":"105","nom":"Desneux","prenom":"C\u00e9cile","email":"enanoe74@gmail.com","adresse":"20 Chemin du Platane","ville":"Sales","latitude":"45.8771707","longitude":"5.9721095","is_client":"1","id_client":"10111","code_postal":"74150"},"Civilite":{"title":"Mme"},"Client":{"region_id":"4"},"domaine":{"#fe7beb":"Praticien en Hypnose Ericksonienne","#006ef5":"Praticien en PNL","#33e3ff":"Fundamental Coaching Skills","#b457df":"Praticien en hypnose spirituelle"}},{"AdherentsSuph":{"id":"108","nom":"Di Mascio","prenom":"Victor","email":"victor.dimascio@gmail.com","adresse":"32 Rue du Garel","ville":"Brignais","latitude":"45.6742239","longitude":"4.7510503","is_client":"1","id_client":"9683","code_postal":"69530"},"Civilite":{"title":"M."},"Client":{"region_id":"4"},"domaine":{"#fe7beb":"Ma\u00eetre Praticien en Hypnose Ericksonienne","#f9436c":"Speed Hypnose","#006ef5":"Praticien en PNL","#33e3ff":"Fundamental Coaching Skills","#a59394":"Praticien en Deep Neural Repatterning","#0000ff":"Ma\u00eetre-praticien en PNL"}},{"AdherentsSuph":{"id":"109","nom":"Dias","prenom":"Paula","email":"pauladias94@free.fr","adresse":"7 Rue de Temple","ville":"Saint Maur des Foss\u00e9s","latitude":"48.8041318","longitude":"2.4812984","is_client":"1","id_client":"10710","code_postal":"94100"},"Civilite":{"title":"Mme"},"Client":{"region_id":"3"},"domaine":{"#fe7beb":"Ma\u00eetre Praticien en Hypnose Ericksonienne","#0069cc":"Praticien en PNL","#b457df":"Praticien en Anneau Gastrique Hypnotique","#f9436c":"Speed Hypnose","#aa6c18":"Praticien Rebouteux"}},{"AdherentsSuph":{"id":"110","nom":"Diaz","prenom":"Alexia","email":"diaz.alexia@live.fr","adresse":"3 Rue du Manoir - B\u00e2t F06","ville":"Kembs","latitude":"47.6806468","longitude":"7.5007033","is_client":"1","id_client":"9369","code_postal":"68680"},"Civilite":{"title":"Mme"},"Client":{"region_id":"8"},"domaine":{"#0069cc":"Praticien en PNL","#fe7beb":"Praticien en Hypnose Ericksonienne","#a59394":"Praticien en Deep Neural Repatterning","#b457df":"Praticien en hypnose spirituelle"}},{"AdherentsSuph":{"id":"111","nom":"Diet","prenom":"Sebastien","email":"sebastien.diet@hotmail.com","adresse":"23, Rue du Th\u00e9\u00e2tre Romain","ville":"Th\u00e9nac","latitude":"45.693901","longitude":"-0.6212932","is_client":"1","id_client":"10913","code_postal":"17460"},"Civilite":{"title":"M."},"Client":{"region_id":"6"},"domaine":{"#33e3ff":"Fundamental Coaching Skills","#006ef5":"Praticien en PNL","#fe7beb":"Ma\u00eetre Praticien en Hypnose Ericksonienne","#a59394":"Praticien en Deep Neural Repatterning"}},{"AdherentsSuph":{"id":"112","nom":"Donce","prenom":"Marie","email":"mdonce@wanadoo.fr","adresse":"2 all\u00e9e Paul C\u00e9zanne","ville":"Montsoult","latitude":"49.0696318","longitude":"2.3034437","is_client":"1","id_client":"9261","code_postal":"95560"},"Civilite":{"title":"Mme"},"Client":{"region_id":"7"},"domaine":{"#19947c":"Praticien en Th\u00e9rapie Familiale et conjugale","#2ec26b":"Th\u00e9rapie br\u00e8ve Base Syst\u00e9mique","#33e3ff":"Fundamental Coaching Skills","#412a2a":"Psycho-Pathologie","#fe7beb":"Praticien en Hypnose Ericksonienne","#006ef5":"Praticien en PNL","#b457df":"Sp\u00e9cialiste en Perte de poids et Arr\u00eat du tabac"}},{"AdherentsSuph":{"id":"115","nom":"Durand","prenom":"Fabien","email":"fabiendurand.pro@gmail.com","adresse":"5 Rue Lecourbe","ville":"Paris","latitude":"48.8447582","longitude":"2.3102642","is_client":"1","id_client":"6881","code_postal":"75015"},"Civilite":{"title":"M."},"Client":{"region_id":"7"},"domaine":{"#f9436c":"Speed Hypnose","#fe7beb":"Praticien en Hypnose Ericksonienne"}},{"AdherentsSuph":{"id":"116","nom":"Dutailly","prenom":"Yannick","email":"yann.dutailly@gmail.com","adresse":"7 Rue Auguste Donna","ville":"Vienne","latitude":"45.5238795","longitude":"4.8713952","is_client":"1","id_client":"11100","code_postal":"38200"},"Civilite":{"title":"M."},"Client":{"region_id":"4"},"domaine":{"#fe7beb":"Praticien en Hypnose Ericksonienne","#b457df":"Sp\u00e9cialiste en Perte de poids et Arr\u00eat du tabac"}},{"AdherentsSuph":{"id":"117","nom":"Ebounda","prenom":"Laurent","email":"Laurent@ebounda.fr","adresse":"3 All\u00e9e Champlain","ville":"Pessac","latitude":"44.8130041","longitude":"-0.6657122","is_client":"1","id_client":"10361","code_postal":"33600"},"Civilite":{"title":"M."},"Client":{"region_id":"6"},"domaine":{"#a59394":"Praticien en Deep Neural Repatterning","#fe7beb":"Praticien en Hypnose Ericksonienne","#e60505":"Praticien en Sexoth\u00e9rapie","#0000ff":"Ma\u00eetre-praticien en PNL","#0069cc":"Praticien en PNL","#b457df":"Hypno-Analg\u00e9sie","#347132":"Coach Certifi\u00e9 ICI","#b41d45":"Ma\u00eetre Praticien en Sexoth\u00e9rapie"}},{"AdherentsSuph":{"id":"118","nom":"Echevarria","prenom":"Remy","email":"remy.echevarria@hotmail.fr","adresse":"33 Avenue de la r\u00e9publique Appt C12bis","ville":"DAX","latitude":"43.7029906","longitude":"-1.0624393","is_client":"1","id_client":"11370","code_postal":"40100"},"Civilite":{"title":"M."},"Client":{"region_id":"6"},"domaine":{"#fe7beb":"Praticien en Hypnose Ericksonienne","#f9436c":"Speed Hypnose"}},{"AdherentsSuph":{"id":"119","nom":"Eckert","prenom":"Delphine","email":"d.moulin69@orange.fr","adresse":"Domaine de la Grand'Cour","ville":"Fleurie","latitude":"46.1848542","longitude":"4.6942175","is_client":"1","id_client":"11787","code_postal":"69820"},"Civilite":{"title":"Mme"},"Client":{"region_id":"4"},"domaine":{"#2ec26b":"Th\u00e9rapie br\u00e8ve Base Syst\u00e9mique","#19947c":"Praticien en Th\u00e9rapie Familiale et conjugale","#0069cc":"Praticien en PNL","#fe7beb":"Ma\u00eetre Praticien en Hypnose Ericksonienne","#412a2a":"Psycho-Pathologie","#0000ff":"Ma\u00eetre-praticien en PNL","#b457df":"Praticien Hypno-Baby","#a59394":"Praticien en Deep Neural Repatterning"}},{"AdherentsSuph":{"id":"120","nom":"Empereur","prenom":"Maguy","email":"maguy.empereur@gmail.com","adresse":"242 Rue du Pelocier","ville":"Izernore","latitude":"46.2145697","longitude":"5.553016","is_client":"1","id_client":"8701","code_postal":"01580"},"Civilite":{"title":"Mme"},"Client":{"region_id":"4"},"domaine":{"#33e3ff":"Fundamental Coaching Skills","#006ef5":"Praticien en PNL","#2ec26b":"Th\u00e9rapie br\u00e8ve Base Syst\u00e9mique","#fe7beb":"Praticien en Hypnose Ericksonienne"}},{"AdherentsSuph":{"id":"121","nom":"Eve","prenom":"Marielle","email":"bleucieleve@orange.fr","adresse":"Lieu dit Larroque","ville":"Rueyres","latitude":"44.7481","longitude":"1.846529","is_client":"1","id_client":"1485","code_postal":"46120"},"Civilite":{"title":"Mme"},"Client":{"region_id":"24"},"domaine":{"#fe7beb":"Praticien en Hypnose Ericksonienne"}},{"AdherentsSuph":{"id":"122","nom":"EZZINADI SAAD","prenom":"Fran\u00e7oise","email":"francoiseezzinadi@outlook.fr","adresse":"29 route de Strasbourg","ville":"ENTZHEIM","latitude":"48.5317728","longitude":"7.6338746","is_client":"1","id_client":"2867","code_postal":"67960"},"Civilite":{"title":"Mme"},"Client":{"region_id":"8"},"domaine":{"#b457df":"Hypnose pour les enfants","#fe7beb":"Ma\u00eetre Praticien en Hypnose Ericksonienne","#33e3ff":"Fundamental Coaching Skills","#006ef5":"Praticien en PNL"}},{"AdherentsSuph":{"id":"124","nom":"Favereaux","prenom":"V\u00e9ronique","email":"vfavereaux@gmail.com","adresse":"14 Rue Amiral Courbet","ville":"Merignac","latitude":"44.8196864","longitude":"-0.6266571","is_client":"1","id_client":"10269","code_postal":"33700"},"Civilite":{"title":"Mme"},"Client":{"region_id":"6"},"domaine":{"#fe7beb":"Praticien en Hypnose Ericksonienne"}},{"AdherentsSuph":{"id":"127","nom":"Feuillet","prenom":"Ga\u00eblle","email":"gaelle.feuillet@yahoo.fr","adresse":"le Grand Perray","ville":"Nozay","latitude":"47.538584","longitude":"-1.6085799","is_client":"1","id_client":"13369","code_postal":"44170"},"Civilite":{"title":"Mme"},"Client":{"region_id":"3"},"domaine":{"#fe7beb":"Praticien en Hypnose Ericksonienne","#0069cc":"Praticien en PNL"}},{"AdherentsSuph":{"id":"128","nom":"Figueiredo","prenom":"Juliana","email":"juliana.figueiredo@hotmail.fr","adresse":"75 Rue Henri Barbusse","ville":"Cregy-Les-Meaux","latitude":"48.9671444","longitude":"2.8687682","is_client":"1","id_client":"11978","code_postal":"77124"},"Civilite":{"title":"Mme"},"Client":{"region_id":"7"},"domaine":{"#fe7beb":"Ma\u00eetre Praticien en Hypnose Ericksonienne","#e60505":"Praticien en Sexoth\u00e9rapie","#0069cc":"Praticien en PNL","#b457df":"Praticien en Anneau Gastrique Hypnotique","#412a2a":"Psycho-Pathologie","#2ec26b":"Th\u00e9rapie br\u00e8ve Base Syst\u00e9mique","#19947c":"Praticien en Th\u00e9rapie Br\u00e8ve","#0000ff":"Ma\u00eetre-praticien en PNL","#f9436c":"Speed Hypnose","#a59394":"Praticien en Deep Neural Repatterning"}},{"AdherentsSuph":{"id":"130","nom":"Fourni\u00e9","prenom":"Nathalie","email":"nathaliefournie28@gmail.com","adresse":"152 all\u00e9e du Cers 'Les Landes","ville":"Mondou Zil","latitude":"43.633758","longitude":"1.556193","is_client":"1","id_client":"9765","code_postal":"31850"},"Civilite":{"title":"Mme"},"Client":{"region_id":"24"},"domaine":{"#e60505":"Praticien en Sexoth\u00e9rapie","#a59394":"Praticien en Deep Neural Repatterning","#fe7beb":"Praticien en Hypnose Ericksonienne","#b457df":"Sp\u00e9cialiste en Perte de poids et Arr\u00eat du tabac","#33e3ff":"Fundamental Coaching Skills"}},{"AdherentsSuph":{"id":"134","nom":"Galot","prenom":"Fr\u00e9d\u00e9ric","email":"fredgalot@hotmail.com","adresse":"22 Rue Richard Wagner","ville":"Salaise Sur Sanne","latitude":"45.3350326","longitude":"4.8204264","is_client":"1","id_client":"9037","code_postal":"38150"},"Civilite":{"title":"M."},"Client":{"region_id":"4"},"domaine":{"#fe7beb":"Ma\u00eetre Praticien en Hypnose Ericksonienne","#33e3ff":"Fundamental Coaching Skills","#006ef5":"Praticien en PNL","#0000ff":"Ma\u00eetre-praticien en PNL","#b457df":"Praticien Hypno-Baby"}},{"AdherentsSuph":{"id":"135","nom":"Gambini","prenom":"Nina","email":"nina.gambini@gmail.com","adresse":"14 Chemin des Parias","ville":"St Laurent D'Andenay","latitude":"46.740318","longitude":"4.5159018","is_client":"1","id_client":"9955","code_postal":"71210"},"Civilite":{"title":"Mme"},"Client":{"region_id":"4"},"domaine":{"#fe7beb":"Praticien en Hypnose Ericksonienne","#f9436c":"Speed Hypnose","#b457df":"Praticien en Anneau Gastrique Hypnotique"}},{"AdherentsSuph":{"id":"136","nom":"Gautrin","prenom":"Philippe","email":"tipoun@cegetel.net","adresse":"Les Orgous","ville":"Guilliers","latitude":"48.0427897","longitude":"-2.404479","is_client":"1","id_client":"13875","code_postal":"56490"},"Civilite":{"title":"M."},"Client":{"region_id":"3"},"domaine":{"#fe7beb":"Praticien en Hypnose Ericksonienne","#b457df":"Sp\u00e9cialiste en Perte de poids et Arr\u00eat du tabac","#0069cc":"Praticien en PNL","#f9436c":"Speed Hypnose"}},{"AdherentsSuph":{"id":"137","nom":"Gentes","prenom":"Laura","email":"lauradietetique@gmail.com","adresse":"32, Rue Descartes","ville":"Limoges","latitude":"45.8488056","longitude":"1.2487038","is_client":"1","id_client":"12542","code_postal":"87100"},"Civilite":{"title":"Mme"},"Client":{"region_id":"6"},"domaine":{"#fe7beb":"Praticien en Hypnose Ericksonienne","#33e3ff":"Fundamental Coaching Skills","#f9436c":"Speed Hypnose"}},{"AdherentsSuph":{"id":"139","nom":"G\u00e9rin","prenom":"Eric","email":"gerineric@wanadoo.fr","adresse":"9,Rue du Ch\u00eane Li\u00e8ge","ville":"Clapiers","latitude":"43.660076","longitude":"3.8958145","is_client":"1","id_client":"11264","code_postal":"34830"},"Civilite":{"title":"M."},"Client":{"region_id":"19"},"domaine":{"#fe7beb":"Praticien en Hypnose Ericksonienne","#f9436c":"Speed Hypnose"}},{"AdherentsSuph":{"id":"141","nom":"Godart","prenom":"David","email":"godartdavid@hotmail.com","adresse":"21 avenue de Saint Germain","ville":"Le Port Marly","latitude":"48.8820686","longitude":"2.1075096","is_client":"1","id_client":"7676","code_postal":"78560"},"Civilite":{"title":"M."},"Client":{"region_id":"7"},"domaine":{"#fe7beb":"Enseignant en Hypnose","#aa6c18":"Praticien Rebouteux","#ea8a10":"Praticien en Hypno-Magn\u00e9tisme","#0069cc":"Praticien en PNL","#b457df":"Praticien Hypno-Baby","#0000ff":"Ma\u00eetre-praticien en PNL","#f9436c":"Speed Hypnose","#a59394":"Praticien en Deep Neural Repatterning","#33e3ff":"Fundamental Coaching Skills","#5c8199":"Enseignant en Programmation Neuro-Linguistique"}},{"AdherentsSuph":{"id":"143","nom":"Gour Labb\u00e9","prenom":"Marie-Pierre","email":"mariegourlabbe@orange.fr","adresse":"17 Rue de la Herpe","ville":"Rennes","latitude":"48.1011329","longitude":"-1.6674827","is_client":"1","id_client":"15221","code_postal":"35000"},"Civilite":{"title":"Mme"},"Client":{"region_id":"3"},"domaine":{"#b457df":"Praticien en hypnose spirituelle"}},{"AdherentsSuph":{"id":"144","nom":"Grandval","prenom":"S\u00e9gol\u00e8ne","email":"segolene.grandval@orange.fr","adresse":"Haut Rivage Entr\u00e9e 9, Rue Jean XXII","ville":"Saint-Max","latitude":"48.705512","longitude":"6.2064199","is_client":"1","id_client":"11453","code_postal":"54130"},"Civilite":{"title":"Mme"},"Client":{"region_id":"7"},"domaine":{"#fe7beb":"Ma\u00eetre Praticien en Hypnose Ericksonienne","#b457df":"Hypnose pour les enfants","#f9436c":"Speed Hypnose","#33e3ff":"Fundamental Coaching Skills","#006ef5":"Praticien en PNL","#a59394":"Praticien en Deep Neural Repatterning","#ea8a10":"Praticien en Hypno-Magn\u00e9tisme"}},{"AdherentsSuph":{"id":"145","nom":"Gratas","prenom":"Anne","email":"gratas_anne@bbox.fr","adresse":"373 Route de Port-Gallaud","ville":"Saint Jean Deniost","latitude":"45.8392567","longitude":"5.2187083","is_client":"1","id_client":"10023","code_postal":"01800"},"Civilite":{"title":"Mme"},"Client":{"region_id":"4"},"domaine":{"#fe7beb":"Praticien en Hypnose Ericksonienne","#b457df":"Sp\u00e9cialiste en Perte de poids et Arr\u00eat du tabac"}},{"AdherentsSuph":{"id":"146","nom":"Gros","prenom":"Armelle","email":"armellede3@yahoo.fr","adresse":"7 Ter, Rue Adolphe Thiers B\u00e2timent C Appartement 14","ville":"Troyes","latitude":"48.2851069","longitude":"4.0720772","is_client":"1","id_client":"9573","code_postal":"10000"},"Civilite":{"title":"Mme"},"Client":{"region_id":"7"},"domaine":{"#a59394":"Praticien en Deep Neural Repatterning","#fe7beb":"Ma\u00eetre Praticien en Hypnose Ericksonienne","#412a2a":"Psycho-Pathologie","#0069cc":"Praticien en PNL","#b457df":"Praticien Hypno-Baby","#19947c":"Praticien en Th\u00e9rapie Familiale et conjugale","#2ec26b":"Th\u00e9rapie br\u00e8ve Base Syst\u00e9mique","#f9436c":"Speed Hypnose","#0000ff":"Ma\u00eetre-praticien en PNL","#347132":"Coach Certifi\u00e9 ICI","#5c8199":"Enseignant en Programmation Neuro-Linguistique","#aa6c18":"Praticien Rebouteux"}},{"AdherentsSuph":{"id":"147","nom":"Guelennoc","prenom":"Laurent","email":"laurent.guelennoc@hotmail.fr","adresse":"90 Route Ferme de Tregaret","ville":"Sixt-Sur-Aff","latitude":"47.7679929","longitude":"-2.1139642","is_client":"1","id_client":"12142","code_postal":"35550"},"Civilite":{"title":"M."},"Client":{"region_id":"3"},"domaine":{"#fe7beb":"Praticien en Hypnose Ericksonienne","#b457df":"Praticien en hypnose spirituelle","#f9436c":"Speed Hypnose"}},{"AdherentsSuph":{"id":"149","nom":"Guerriero","prenom":"St\u00e9phanie","email":"stephanie.guerriero@gmail.com","adresse":"7 boulevard Fernand Serre","ville":"AVIGNON","latitude":"43.9500184","longitude":"4.8275931","is_client":"1","id_client":"10831","code_postal":"84000"},"Civilite":{"title":"Mme"},"Client":{"region_id":"17"},"domaine":{"#fe7beb":"Praticien en Hypnose Ericksonienne","#a59394":"Praticien en Deep Neural Repatterning","#412a2a":"Psycho-Pathologie"}},{"AdherentsSuph":{"id":"150","nom":"GUILBAUT","prenom":"GERARD","email":"gerard.guilbaut@free.fr","adresse":"248 RUE DU PAS DE LA CEPE","ville":"FR\u00c9JUS","latitude":"43.520967","longitude":"6.8745601","is_client":"1","id_client":"5452","code_postal":"83600"},"Civilite":{"title":"M."},"Client":{"region_id":"7"},"domaine":{"#006ef5":"Praticien en PNL","#33e3ff":"Fundamental Coaching Skills","#0000ff":"Ma\u00eetre-praticien en PNL","#fe7beb":"Ma\u00eetre Praticien en Hypnose Ericksonienne","#b457df":"Sp\u00e9cialiste en Hypnose Hyperemperia","#f9436c":"Speed Hypnose"}},{"AdherentsSuph":{"id":"151","nom":"Guillard-Fournet","prenom":"Aurore","email":"aurore.guillard-fournet@wanadoo.fr","adresse":"9 Rue de Verdun","ville":"Saint Max","latitude":"48.7000427","longitude":"6.2107297","is_client":"1","id_client":"11284","code_postal":"54130"},"Civilite":{"title":"Mme"},"Client":{"region_id":"8"},"domaine":{"#fe7beb":"Ma\u00eetre Praticien en Hypnose Ericksonienne","#b457df":"Praticien en Anneau Gastrique Hypnotique","#f9436c":"Speed Hypnose","#33e3ff":"Fundamental Coaching Skills","#006ef5":"Praticien en PNL","#a59394":"Praticien en Deep Neural Repatterning","#ea8a10":"Praticien en Hypno-Magn\u00e9tisme"}},{"AdherentsSuph":{"id":"155","nom":"Hazeaux","prenom":"Vincent","email":"vince.hazeaux@orange.fr","adresse":"13 rue du Hurlevent","ville":"Sedan","latitude":"49.7110565","longitude":"4.9471091","is_client":"1","id_client":"10684","code_postal":"08200"},"Civilite":{"title":"M."},"Client":{"region_id":"7"},"domaine":{"#33e3ff":"Fundamental Coaching Skills","#006ef5":"Praticien en PNL","#fe7beb":"Ma\u00eetre Praticien en Hypnose Ericksonienne","#b457df":"Hypnose pour les enfants","#a59394":"Praticien en Deep Neural Repatterning","#2ec26b":"Th\u00e9rapie br\u00e8ve Base Syst\u00e9mique","#f9436c":"Speed Hypnose","#412a2a":"Psycho-Pathologie"}},{"AdherentsSuph":{"id":"159","nom":"Horwitz","prenom":"Sophie","email":"sophyhorwitz66@gmail.com","adresse":"09 Rue du G\u00e9n\u00e9ral Gairaud","ville":"Strasbourg","latitude":"48.5875843","longitude":"7.7567271","is_client":"1","id_client":"9899","code_postal":"67000"},"Civilite":{"title":"Mme"},"Client":{"region_id":"8"},"domaine":{"#fe7beb":"Praticien en Hypnose Ericksonienne","#b457df":"Praticien en Anneau Gastrique Hypnotique","#33e3ff":"Fundamental Coaching Skills","#412a2a":"Psycho-Pathologie","#006ef5":"Praticien en PNL"}},{"AdherentsSuph":{"id":"160","nom":"Houin","prenom":"Sandra","email":"sandrahouin.21@gmail.com","adresse":"42 route de bretigny","ville":"bressey sur tille","latitude":"47.305967","longitude":"5.183652","is_client":"1","id_client":"6823","code_postal":"21490"},"Civilite":{"title":"Mme"},"Client":{"region_id":"7"},"domaine":{"#fe7beb":"Ma\u00eetre Praticien en Hypnose Ericksonienne","#b457df":"Praticien en Anneau Gastrique Hypnotique","#0069cc":"Praticien en PNL","#0000ff":"Ma\u00eetre-praticien en PNL","#412a2a":"Psycho-Pathologie","#f9436c":"Speed Hypnose"}},{"AdherentsSuph":{"id":"162","nom":"Huet","prenom":"Regis","email":"nrjpr@hotmail.fr","adresse":"17 Route de Jaujon","ville":"L'Eguille","latitude":"45.7039226","longitude":"-0.9780449","is_client":"1","id_client":"6358","code_postal":"17600"},"Civilite":{"title":"M."},"Client":{"region_id":"6"},"domaine":{"#fe7beb":"Praticien en Hypnose Ericksonienne","#b457df":"Praticien en hypnose spirituelle","#33e3ff":"Fundamental Coaching Skills","#006ef5":"Praticien en PNL","#aa6c18":"Praticien Rebouteux"}},{"AdherentsSuph":{"id":"165","nom":"Jacquet","prenom":"Nathalie","email":"nathalie160771@gmail.com","adresse":"215 Chemin du Bret","ville":"St Cyr les Vignes","latitude":"45.6855789","longitude":"4.3100108","is_client":"1","id_client":"11182","code_postal":"42210"},"Civilite":{"title":"Mme"},"Client":{"region_id":"4"},"domaine":{"#fe7beb":"Ma\u00eetre Praticien en Hypnose Ericksonienne","#b457df":"Sp\u00e9cialiste en Perte de poids et Arr\u00eat du tabac"}},{"AdherentsSuph":{"id":"166","nom":"Jan","prenom":"Catherine","email":"catherine.jan@orange.fr","adresse":"182 Rue de Saint Malo","ville":"Rennes","latitude":"48.1218262","longitude":"-1.6830554","is_client":"1","id_client":"11946","code_postal":"35000"},"Civilite":{"title":"Mme"},"Client":{"region_id":"3"},"domaine":{"#fe7beb":"Praticien en Hypnose Ericksonienne"}},{"AdherentsSuph":{"id":"168","nom":"Joubert","prenom":"Jessica","email":"joubert.jess@gmail.com","adresse":"3 Place de la Mairie","ville":"La Tour En Jarez","latitude":"45.4857342","longitude":"4.3874048","is_client":"1","id_client":"9102","code_postal":"42580"},"Civilite":{"title":"Mme"},"Client":{"region_id":"4"},"domaine":{"#fe7beb":"Praticien en Hypnose Ericksonienne","#b457df":"Praticien en hypnose spirituelle"}},{"AdherentsSuph":{"id":"169","nom":"Jourel","prenom":"Muriel","email":"mispinkladie@hotmail.fr","adresse":"278 Rue de la Fontaine","ville":"Corcelles en Beaujolais","latitude":"46.1544405","longitude":"4.7205427","is_client":"1","id_client":"9131","code_postal":"69220"},"Civilite":{"title":"Mme"},"Client":{"region_id":"4"},"domaine":{"#b457df":"Hypnose pour les enfants","#fe7beb":"Praticien en Hypnose Ericksonienne"}},{"AdherentsSuph":{"id":"172","nom":"Kacemi","prenom":"Mohamed","email":"contact.kacemi@gmail.com","adresse":"03 Chemin des Pervenches","ville":"Chamb\u00e9ry","latitude":"45.5804612","longitude":"5.9195335","is_client":"1","id_client":"3067","code_postal":"73000"},"Civilite":{"title":"M."},"Client":{"region_id":"4"},"domaine":{"#5c8199":"Enseignant en Programmation Neuro-Linguistique","#fe7beb":"Enseignant en Hypnose","#b457df":"Praticien en hypnose spirituelle"}},{"AdherentsSuph":{"id":"173","nom":"Kaerle","prenom":"C\u00e9cile","email":"cecile.kaerle@libertysurf.fr","adresse":"18 C Av de la Constellation","ville":"Tassin La Demi-Lune","latitude":"45.7555429","longitude":"4.7752632","is_client":"1","id_client":"10095","code_postal":"69160"},"Civilite":{"title":"Mme"},"Client":{"region_id":"4"},"domaine":{"#fe7beb":"Ma\u00eetre Praticien en Hypnose Ericksonienne","#0069cc":"Praticien en PNL","#33e3ff":"Fundamental Coaching Skills","#0000ff":"Ma\u00eetre-praticien en PNL"}},{"AdherentsSuph":{"id":"174","nom":"Kakpo","prenom":"A\u00efda","email":"moorea.79@hotmail.fr","adresse":"Chez Catteloin Anne  19 rue Pierre Termier","ville":"Varces Alli\u00e8res et Risset","latitude":"45.0905796","longitude":"5.6826762","is_client":"1","id_client":"10873","code_postal":"38760"},"Civilite":{"title":"Mme"},"Client":{"region_id":"4"},"domaine":{"#fe7beb":"Praticien en Hypnose Ericksonienne","#0069cc":"Praticien en PNL"}},{"AdherentsSuph":{"id":"175","nom":"Kazmine","prenom":"Mireille","email":"mireille.kazmine@neuf.fr","adresse":"13 Rue de la R\u00e9publique","ville":"Montceau-Les-M\u00e8nes","latitude":"46.6774876","longitude":"4.3665112","is_client":"1","id_client":"8157","code_postal":"71300"},"Civilite":{"title":"Mme"},"Client":{"region_id":"4"},"domaine":{"#fe7beb":"Ma\u00eetre Praticien en Hypnose Ericksonienne","#b457df":"Sp\u00e9cialiste en Perte de poids et Arr\u00eat du tabac","#006ef5":"Praticien en PNL","#33e3ff":"Fundamental Coaching Skills","#f9436c":"Speed Hypnose"}},{"AdherentsSuph":{"id":"176","nom":"Kerdraon","prenom":"Jean-Luc","email":"jlkerdraon@hotmail.com","adresse":"1 Rue G\u00e9n\u00e9ral Koenig","ville":"Troarn","latitude":"49.177615","longitude":"-0.1852005","is_client":"1","id_client":"9025","code_postal":"14670"},"Civilite":{"title":"M."},"Client":{"region_id":"4"},"domaine":{"#006ef5":"Praticien en PNL","#a59394":"Praticien en Deep Neural Repatterning","#33e3ff":"Fundamental Coaching Skills","#19947c":"Praticien en Th\u00e9rapie Familiale et conjugale","#2ec26b":"Th\u00e9rapie br\u00e8ve Base Syst\u00e9mique","#e60505":"Praticien en Sexoth\u00e9rapie","#fe7beb":"Praticien en Hypnose Ericksonienne","#b41d45":"Ma\u00eetre Praticien en Sexoth\u00e9rapie","#b457df":"Praticien en Anneau Gastrique Hypnotique","#f9436c":"Speed Hypnose","#0000ff":"Ma\u00eetre-praticien en PNL"}},{"AdherentsSuph":{"id":"177","nom":"Kerynck","prenom":"Annie","email":"annie.kerynck@sfr.fr","adresse":"289 Rue Des Berceaux","ville":"Quelmes","latitude":"50.7344457","longitude":"2.1365518","is_client":"1","id_client":"10362","code_postal":"62500"},"Civilite":{"title":"Mme"},"Client":{"region_id":"9"},"domaine":{"#0069cc":"Praticien en PNL","#fe7beb":"Praticien en Hypnose Ericksonienne","#33e3ff":"Fundamental Coaching Skills","#0000ff":"Ma\u00eetre-praticien en PNL","#e60505":"Praticien en Sexoth\u00e9rapie","#b41d45":"Ma\u00eetre Praticien en Sexoth\u00e9rapie"}},{"AdherentsSuph":{"id":"178","nom":"Khattab","prenom":"Naouri","email":"nouri.k@live.fr","adresse":"228 Rue Charles Baudelaire Bat B9","ville":"La Tour du Pin","latitude":"45.5775544","longitude":"5.4413311","is_client":"1","id_client":"13647","code_postal":"38110"},"Civilite":{"title":"M."},"Client":{"region_id":"4"},"domaine":{"#fe7beb":"Ma\u00eetre Praticien en Hypnose Ericksonienne","#f9436c":"Speed Hypnose","#b457df":"Praticien en Anneau Gastrique Hypnotique"}},{"AdherentsSuph":{"id":"179","nom":"Korzetz","prenom":"Agn\u00e8s","email":"asahi.ak@wanadoo.fr","adresse":"52 Rue du 10 Mars","ville":"Nayelles Sous Lens","latitude":"50.4292947","longitude":"2.876812","is_client":"1","id_client":"7633","code_postal":"62221"},"Civilite":{"title":"Mme"},"Client":{"region_id":"9"},"domaine":{"#fe7beb":"Ma\u00eetre Praticien en Hypnose Ericksonienne","#b457df":"Sp\u00e9cialiste en Hypnose Hyperemperia","#33e3ff":"Fundamental Coaching Skills","#0069cc":"Praticien en PNL"}},{"AdherentsSuph":{"id":"180","nom":"Kummer","prenom":"Emmanuelle","email":"e-kummer@hotmail.fr","adresse":"146 Cours Balguerie Stuttenberg","ville":"Bordeaux","latitude":"44.8595412","longitude":"-0.5650232","is_client":"1","id_client":"10419","code_postal":"33300"},"Civilite":{"title":"Mme"},"Client":{"region_id":"6"},"domaine":{"#0000ff":"Ma\u00eetre-praticien en PNL","#fe7beb":"Ma\u00eetre Praticien en Hypnose Ericksonienne","#0069cc":"Praticien en PNL","#b457df":"Sp\u00e9cialiste en Perte de poids et Arr\u00eat du tabac","#f9436c":"Speed Hypnose","#33e3ff":"Fundamental Coaching Skills"}},{"AdherentsSuph":{"id":"181","nom":"Kunkel","prenom":"Marc","email":"oimmoik@gmail.com","adresse":"201 Route de la Wantzenau","ville":"Strasbourg","latitude":"48.6161596","longitude":"7.7872325","is_client":"1","id_client":"5079","code_postal":"67000"},"Civilite":{"title":"M."},"Client":{"region_id":"8"},"domaine":{"#fe7beb":"Praticien en Hypnose Ericksonienne"}},{"AdherentsSuph":{"id":"183","nom":"Labeyrie-Lagardere","prenom":"Helene","email":"helene.labeyrie@wanadoo.fr","adresse":"2 Place Docteur Fernand Grosse","ville":"Villenave d'Ornon","latitude":"44.7885005","longitude":"-0.5711215","is_client":"1","id_client":"10104","code_postal":"33140"},"Civilite":{"title":"Mme"},"Client":{"region_id":"6"},"domaine":{"#fe7beb":"Ma\u00eetre Praticien en Hypnose Ericksonienne","#33e3ff":"Fundamental Coaching Skills","#006ef5":"Praticien en PNL"}},{"AdherentsSuph":{"id":"184","nom":"Labruqu\u00e8re","prenom":"Odile","email":"odile.labruquere@gmail.com","adresse":"7 Rue Lagr\u00e9ou","ville":"Bayonne","latitude":"43.4887307","longitude":"-1.4762423","is_client":"1","id_client":"9453","code_postal":"64100"},"Civilite":{"title":"Mme"},"Client":{"region_id":"6"},"domaine":{"#2ec26b":"Th\u00e9rapie br\u00e8ve Base Syst\u00e9mique","#19947c":"Praticien en Th\u00e9rapie Br\u00e8ve","#006ef5":"Praticien en PNL","#33e3ff":"Fundamental Coaching Skills","#fe7beb":"Praticien en Hypnose Ericksonienne"}},{"AdherentsSuph":{"id":"185","nom":"Lacroix","prenom":"Julien","email":"julienlac@free.fr","adresse":"17 Rue Ernest Renan","ville":"Paris","latitude":"48.8428863","longitude":"2.31036","is_client":"1","id_client":"13883","code_postal":"75015"},"Civilite":{"title":"M."},"Client":{"region_id":"7"},"domaine":{"#fe7beb":"Ma\u00eetre Praticien en Hypnose Ericksonienne","#0069cc":"Praticien en PNL","#412a2a":"Psycho-Pathologie","#a59394":"Praticien en Deep Neural Repatterning","#f9436c":"Speed Hypnose","#33e3ff":"Fundamental Coaching Skills","#b457df":"Praticien en hypnose spirituelle"}},{"AdherentsSuph":{"id":"188","nom":"Lagrange","prenom":"Emilie","email":"lagrangeemilie@hotmail.fr","adresse":"12 B Rue Paul Costa","ville":"Terces-Les-Bains","latitude":"43.6703959","longitude":"-1.109595","is_client":"1","id_client":"12844","code_postal":"40180"},"Civilite":{"title":"Mme"},"Client":{"region_id":"6"},"domaine":{"#fe7beb":"Enseignant en Hypnose","#b457df":"Sp\u00e9cialiste en Perte de poids et Arr\u00eat du tabac"}},{"AdherentsSuph":{"id":"189","nom":"Lagrange","prenom":"Val\u00e9rie","email":"valerianelagrange@gmail.com","adresse":"3 Rue Sergent Rey,","ville":"Bergerac","latitude":"44.8669251","longitude":"0.4855064","is_client":"1","id_client":"2294","code_postal":"24100"},"Civilite":{"title":"Mme"},"Client":{"region_id":"6"},"domaine":{"#fe7beb":"Ma\u00eetre Praticien en Hypnose Ericksonienne","#412a2a":"Psycho-Pathologie","#006ef5":"Praticien en PNL","#f9436c":"Speed Hypnose","#a59394":"Praticien en Deep Neural Repatterning","#347132":"Coach Certifi\u00e9 ICI","#0000ff":"Ma\u00eetre-praticien en PNL","#2ec26b":"Th\u00e9rapie br\u00e8ve Base Syst\u00e9mique","#19947c":"Praticien en Th\u00e9rapie Familiale et conjugale"}},{"AdherentsSuph":{"id":"192","nom":"Landon","prenom":"Amandine","email":"amandinelandon01@gmail.com","adresse":"11 rue Bertin Poir\u00e9e","ville":"Paris","latitude":"48.8588298","longitude":"2.3446535","is_client":"1","id_client":"9189","code_postal":"75001"},"Civilite":{"title":"Mme"},"Client":{"region_id":"7"},"domaine":{"#fe7beb":"Praticien en Hypnose Ericksonienne","#b457df":"Sp\u00e9cialiste en Perte de poids et Arr\u00eat du tabac","#ea8a10":"Praticien en Hypno-Magn\u00e9tisme","#aa6c18":"Praticien Rebouteux"}},{"AdherentsSuph":{"id":"193","nom":"Large","prenom":"Brigitte","email":"brigittelarge@laposte.net","adresse":"4 Rue Du Ravelin","ville":"Saint-Vallier","latitude":"45.1784263","longitude":"4.8158505","is_client":"1","id_client":"11799","code_postal":"26240"},"Civilite":{"title":"Mme"},"Client":{"region_id":"4"},"domaine":{"#fe7beb":"Ma\u00eetre Praticien en Hypnose Ericksonienne","#b457df":"Praticien en hypnose spirituelle","#f9436c":"Speed Hypnose"}},{"AdherentsSuph":{"id":"194","nom":"Larue","prenom":"Yann","email":"vocallifecoaching@gmail.com","adresse":"4 rue du Vallon","ville":"Noisy le Grand","latitude":"48.8399586","longitude":"2.5747813","is_client":"1","id_client":"3466","code_postal":"93160"},"Civilite":{"title":"M."},"Client":{"region_id":"7"},"domaine":{"#f9436c":"Speed Hypnose","#fe7beb":"Ma\u00eetre Praticien en Hypnose Ericksonienne"}},{"AdherentsSuph":{"id":"195","nom":"Lasnier","prenom":"Bruno","email":"lasnierb@gmail.com","adresse":"19\/21 rue Brillet","ville":"Nogent sur Marne","latitude":"48.8384245","longitude":"2.4814782","is_client":"1","id_client":"1011","code_postal":"94130"},"Civilite":{"title":"M."},"Client":{"region_id":"7"},"domaine":{"#412a2a":"Psycho-Pathologie"}},{"AdherentsSuph":{"id":"196","nom":"Latapie","prenom":"Laurence","email":"laurence-latapie@orange.fr","adresse":"21 Cami du Moulin","ville":"Saint Lezer","latitude":"43.368964","longitude":"0.031752","is_client":"1","id_client":"12098","code_postal":"65500"},"Civilite":{"title":"Mme"},"Client":{"region_id":"6"},"domaine":{"#fe7beb":"Praticien en Hypnose Ericksonienne","#f9436c":"Speed Hypnose"}},{"AdherentsSuph":{"id":"197","nom":"Le Baut","prenom":"Malvina","email":"malvina-p@wanadoo.fr","adresse":"85 Chemin de Marthe Quartier de la Pourranque","ville":"Les P\u00e9nnes Mirabeau","latitude":"43.4083231","longitude":"5.3207069","is_client":"1","id_client":"8804","code_postal":"13170"},"Civilite":{"title":"Mme"},"Client":{"region_id":"17"},"domaine":{"#006ef5":"Praticien en PNL","#fe7beb":"Praticien en Hypnose Ericksonienne","#33e3ff":"Fundamental Coaching Skills","#0000ff":"Ma\u00eetre-praticien en PNL","#412a2a":"Psycho-Pathologie","#b457df":"Praticien Hypno-Baby"}},{"AdherentsSuph":{"id":"198","nom":"Le Caer","prenom":"Nathalie","email":"n.lecaer@hotmail.com","adresse":"30 rue Paul Langevin","ville":"Lamballe","latitude":"48.4703833","longitude":"-2.511469","is_client":"1","id_client":"8852","code_postal":"22400"},"Civilite":{"title":"Mme"},"Client":{"region_id":"7"},"domaine":{"#fe7beb":"Praticien en Hypnose Ericksonienne","#0069cc":"Praticien en PNL","#33e3ff":"Fundamental Coaching Skills","#b457df":"Hypno-Enn\u00e9agramme","#0000ff":"Ma\u00eetre-praticien en PNL"}},{"AdherentsSuph":{"id":"199","nom":"Le Goff","prenom":"Sylvie","email":"sylvie.legoff27@gmail.com","adresse":"1 rue de la grande Sente","ville":"SAINT PIERRE D'AUTILS","latitude":"49.1142486","longitude":"1.4351271","is_client":"1","id_client":"8576","code_postal":"27950"},"Civilite":{"title":"Mme"},"Client":{"region_id":"7"},"domaine":{"#33e3ff":"Fundamental Coaching Skills","#006ef5":"Praticien en PNL","#b457df":"Hypnose pour les enfants","#fe7beb":"Praticien en Hypnose Ericksonienne","#f9436c":"Speed Hypnose"}},{"AdherentsSuph":{"id":"200","nom":"Le Roy","prenom":"Sophie","email":"sophie.croixrousse@gmail.com","adresse":"24 rue Roussy","ville":"Lyon","latitude":"45.7750704","longitude":"4.8223497","is_client":"1","id_client":"7659","code_postal":"69004"},"Civilite":{"title":"Mme"},"Client":{"region_id":"4"},"domaine":{"#fe7beb":"Praticien en Hypnose Ericksonienne"}},{"AdherentsSuph":{"id":"201","nom":"Lebigre","prenom":"C\u00e9dric","email":"clebigre@gmail.com","adresse":"27 Rue Miollis","ville":"Paris","latitude":"48.8453813","longitude":"2.3028926","is_client":"1","id_client":"8390","code_postal":"75015"},"Civilite":{"title":"M."},"Client":{"region_id":"7"},"domaine":{"#2ec26b":"Th\u00e9rapie br\u00e8ve Base Syst\u00e9mique","#0069cc":"Praticien en PNL","#19947c":"Praticien en Th\u00e9rapie Br\u00e8ve","#0000ff":"Ma\u00eetre-praticien en PNL","#fe7beb":"Praticien en Hypnose Ericksonienne","#f9436c":"Speed Hypnose","#b457df":"Sp\u00e9cialiste en Hypnose Hyperemperia"}},{"AdherentsSuph":{"id":"202","nom":"Lecaplain","prenom":"Marie","email":"marielecaplain@yahoo.fr","adresse":"4 Rue Lohier","ville":"Montmartin-Sur-Mer","latitude":"48.9899073","longitude":"-1.5297596","is_client":"1","id_client":"7423","code_postal":"50590"},"Civilite":{"title":"Mme"},"Client":{"region_id":"3"},"domaine":{"#006ef5":"Praticien en PNL","#fe7beb":"Praticien en Hypnose Ericksonienne","#f9436c":"Speed Hypnose","#33e3ff":"Fundamental Coaching Skills","#b457df":"Hypno-Analg\u00e9sie"}},{"AdherentsSuph":{"id":"203","nom":"Lechef","prenom":"Maryline","email":"maryline.lechef@live.fr","adresse":"8, Rue Paul Canta","ville":"Dives sur Mer","latitude":"49.2858432","longitude":"-0.0970204","is_client":"1","id_client":"10952","code_postal":"14160"},"Civilite":{"title":"Mme"},"Client":{"region_id":"7"},"domaine":{"#fe7beb":"Praticien en Hypnose Ericksonienne","#b457df":"Praticien en Anneau Gastrique Hypnotique","#347132":"Coach Certifi\u00e9 ICI","#0069cc":"Praticien en PNL"}},{"AdherentsSuph":{"id":"204","nom":"Leger","prenom":"Christine","email":"jpleger3ptilou@sfr.fr","adresse":"74 Chemin de Praronds","ville":"Gillonnay","latitude":"45.3930818","longitude":"5.2885872","is_client":"1","id_client":"9377","code_postal":"38260"},"Civilite":{"title":"Mme"},"Client":{"region_id":"4"},"domaine":{"#fe7beb":"Praticien en Hypnose Ericksonienne","#b457df":"Praticien en Anneau Gastrique Hypnotique"}},{"AdherentsSuph":{"id":"206","nom":"Leloir","prenom":"St\u00e9phanie","email":"steff666@hotmail.com","adresse":"38, Rue Hyacinthe Rigaud","ville":"Canoh\u00e8s","latitude":"42.6541491","longitude":"2.8277891","is_client":"1","id_client":"13567","code_postal":"66680"},"Civilite":{"title":"Mme"},"Client":{"region_id":"23"},"domaine":{"#fe7beb":"Praticien en Hypnose Ericksonienne","#2ec26b":"Th\u00e9rapie br\u00e8ve Base Syst\u00e9mique","#19947c":"Praticien en Th\u00e9rapie Br\u00e8ve"}},{"AdherentsSuph":{"id":"207","nom":"Lenoir","prenom":"Justine","email":"j.lenoir.71@gmail.com","adresse":"77 Rue du 1er Mars","ville":"Villeurbanne","latitude":"45.76296","longitude":"4.8902843","is_client":"1","id_client":"11554","code_postal":"69100"},"Civilite":{"title":"Mme"},"Client":{"region_id":"4"},"domaine":{"#fe7beb":"Ma\u00eetre Praticien en Hypnose Ericksonienne","#b457df":"Praticien en hypnose spirituelle","#33e3ff":"Fundamental Coaching Skills","#ea8a10":"Praticien en Hypno-Magn\u00e9tisme"}},{"AdherentsSuph":{"id":"208","nom":"Lepetit","prenom":"Ghislain","email":"ghislain.lepetit@gmail.com","adresse":"16 Rue Spriet Tellier","ville":"Mons-en-Bar?ul","latitude":"50.6483951","longitude":"3.1005834","is_client":"1","id_client":"10407","code_postal":"59370"},"Civilite":{"title":"M."},"Client":{"region_id":"9"},"domaine":{"#fe7beb":"Praticien en Hypnose Ericksonienne"}},{"AdherentsSuph":{"id":"209","nom":"Leplant","prenom":"Nicolas","email":"nicolas@nimage-video.net","adresse":"38 Rue de Champ Rosey  adresse local professionnel : 7 rue Thalie 71100 Chalon-sur-Sa\u00f4ne.","ville":"Saint R\u00e9my","latitude":"46.769418","longitude":"4.828658","is_client":"1","id_client":"9792","code_postal":"71100"},"Civilite":{"title":"M."},"Client":{"region_id":"4"},"domaine":{"#fe7beb":"Praticien en Hypnose Ericksonienne"}},{"AdherentsSuph":{"id":"210","nom":"Leprettre","prenom":"Daniel","email":"aiel3466@gmail.com","adresse":"Kerdoupin","ville":"Langonnet","latitude":"48.160458","longitude":"-3.517526","is_client":"1","id_client":"11023","code_postal":"56630"},"Civilite":{"title":"M."},"Client":{"region_id":"3"},"domaine":{"#fe7beb":"Praticien en Hypnose Ericksonienne"}},{"AdherentsSuph":{"id":"216","nom":"Loz\u00e9","prenom":"Lydia","email":"lydialoze@zeop.re","adresse":"192 Ter Rue Marius et Ary Leblond","ville":"Saint-Paul","latitude":"43.7019161","longitude":"7.1309155","is_client":"1","id_client":"7326","code_postal":"97460"},"Civilite":{"title":"Mme"},"Client":{"region_id":"6"},"domaine":{"#a59394":"Praticien en Deep Neural Repatterning","#fe7beb":"Ma\u00eetre Praticien en Hypnose Ericksonienne","#0069cc":"Praticien en PNL","#b457df":"Hypnose pour les enfants","#347132":"Coach Certifi\u00e9 ICI","#0000ff":"Ma\u00eetre-praticien en PNL"}},{"AdherentsSuph":{"id":"217","nom":"Lumia","prenom":"David","email":"davidlumia@orange.fr","adresse":"7 rue Virginie du Verger","ville":"Metz","latitude":"49.1039083","longitude":"6.2421086","is_client":"1","id_client":"11272","code_postal":"57070"},"Civilite":{"title":"M."},"Client":{"region_id":"8"},"domaine":{"#fe7beb":"Praticien en Hypnose Ericksonienne","#b457df":"Sp\u00e9cialiste en Perte de poids et Arr\u00eat du tabac","#33e3ff":"Fundamental Coaching Skills","#006ef5":"Praticien en PNL","#a59394":"Praticien en Deep Neural Repatterning"}},{"AdherentsSuph":{"id":"220","nom":"Mameri","prenom":"Dalila","email":"dmameri@hotmail.fr","adresse":"18 Rue Henri Chevreau","ville":"Paris","latitude":"48.869477","longitude":"2.3894958","is_client":"1","id_client":"7556","code_postal":"75020"},"Civilite":{"title":"Mme"},"Client":{"region_id":"7"},"domaine":{"#fe7beb":"Praticien en Hypnose Ericksonienne","#0000ff":"Ma\u00eetre-praticien en PNL","#006ef5":"Praticien en PNL","#b457df":"Hypno-Analg\u00e9sie","#33e3ff":"Fundamental Coaching Skills","#412a2a":"Psycho-Pathologie","#a59394":"Praticien en Deep Neural Repatterning"}},{"AdherentsSuph":{"id":"221","nom":"MANIEY","prenom":"Serge","email":"sergemaniey@sfr.fr","adresse":"3 avenue des peupliers","ville":"Cesson S\u00e9v","latitude":"48.1131748","longitude":"-1.6035988","is_client":"1","id_client":"8563","code_postal":"35510"},"Civilite":{"title":"M."},"Client":{"region_id":"3"},"domaine":{"#fe7beb":"Praticien en Hypnose Ericksonienne","#b457df":"Praticien en hypnose spirituelle"}},{"AdherentsSuph":{"id":"223","nom":"Maraux","prenom":"Sophie","email":"sophie.maraux@gmx.fr","adresse":"7 Rue des Capuans","ville":"Nevy Les Dole","latitude":"47.0053493","longitude":"5.5190739","is_client":"1","id_client":"12783","code_postal":"39380"},"Civilite":{"title":"Mme"},"Client":{"region_id":"4"},"domaine":{"#006ef5":"Praticien en PNL","#33e3ff":"Fundamental Coaching Skills","#fe7beb":"Ma\u00eetre Praticien en Hypnose Ericksonienne","#ea8a10":"Praticien en Hypno-Magn\u00e9tisme","#b457df":"Hypnose pour les enfants"}},{"AdherentsSuph":{"id":"224","nom":"Marchand","prenom":"Marie-France","email":"m_mfce@yahoo.fr","adresse":"15 Rue Maurice Genevoix","ville":"Nalliers","latitude":"46.4642863","longitude":"-1.0321841","is_client":"1","id_client":"9492","code_postal":"85370"},"Civilite":{"title":"Mme"},"Client":{"region_id":"7"},"domaine":{"#fe7beb":"Ma\u00eetre Praticien en Hypnose Ericksonienne","#f9436c":"Speed Hypnose"}},{"AdherentsSuph":{"id":"225","nom":"Marin-Cl\u00e9ment","prenom":"Elodie","email":"clemeel@hotmail.fr","adresse":"7 RUE DES PEUPLIERS","ville":"BLANQUEFORT","latitude":"44.9141084","longitude":"-0.6260449","is_client":"1","id_client":"8117","code_postal":"33290"},"Civilite":{"title":"Mme"},"Client":{"region_id":"6"},"domaine":{"#fe7beb":"Enseignant en Hypnose","#0069cc":"Praticien en PNL","#412a2a":"Psycho-Pathologie","#2ec26b":"Th\u00e9rapie br\u00e8ve Base Syst\u00e9mique","#19947c":"Praticien en Th\u00e9rapie Familiale et conjugale","#33e3ff":"Fundamental Coaching Skills","#b457df":"Praticien en hypnose spirituelle","#f9436c":"Speed Hypnose","#a59394":"Praticien en Deep Neural Repatterning","#0000ff":"Ma\u00eetre-praticien en PNL"}},{"AdherentsSuph":{"id":"226","nom":"Martin","prenom":"Marina","email":"mina148@hotmail.fr","adresse":"6 Rue de la Caserne","ville":"Bellegarde sur Valserine","latitude":"46.1120535","longitude":"5.826633","is_client":"1","id_client":"6376","code_postal":"01200"},"Civilite":{"title":"Mme"},"Client":{"region_id":"4"},"domaine":{"#fe7beb":"Ma\u00eetre Praticien en Hypnose Ericksonienne","#b457df":"Praticien en hypnose spirituelle","#f9436c":"Speed Hypnose","#33e3ff":"Fundamental Coaching Skills","#2ec26b":"Th\u00e9rapie br\u00e8ve Base Syst\u00e9mique","#006ef5":"Praticien en PNL","#e60505":"Praticien en Sexoth\u00e9rapie","#a59394":"Praticien en Deep Neural Repatterning","#347132":"Coach Certifi\u00e9 ICI","#0000ff":"Ma\u00eetre-praticien en PNL"}},{"AdherentsSuph":{"id":"228","nom":"MATIGNON","prenom":"Nathalie","email":"matignon.jpnat@free.fr","adresse":"285, Rue Gauguin","ville":"CUINCY","latitude":"50.380104","longitude":"3.0566396","is_client":"1","id_client":"8957","code_postal":"59553"},"Civilite":{"title":"Mme"},"Client":{"region_id":"9"},"domaine":{"#fe7beb":"Praticien en Hypnose Ericksonienne","#0069cc":"Praticien en PNL","#412a2a":"Psycho-Pathologie","#e60505":"Praticien en Sexoth\u00e9rapie"}},{"AdherentsSuph":{"id":"229","nom":"Maurel","prenom":"Romuald","email":"arkanima@yahoo.fr","adresse":"6 Rue Julier Rousseau","ville":"Auray","latitude":"47.6733994","longitude":"-3.0043726","is_client":"1","id_client":"9675","code_postal":"56400"},"Civilite":{"title":"M."},"Client":{"region_id":"3"},"domaine":{"#fe7beb":"Praticien en Hypnose Ericksonienne","#b457df":"Praticien en Anneau Gastrique Hypnotique","#ea8a10":"Praticien en Hypno-Magn\u00e9tisme"}},{"AdherentsSuph":{"id":"231","nom":"Memran","prenom":"Eva","email":"evamemran@gmail.com","adresse":"14 Rue Yvart","ville":"Paris","latitude":"48.836853","longitude":"2.3020896","is_client":"1","id_client":"10297","code_postal":"75015"},"Civilite":{"title":"Mme"},"Client":{"region_id":"7"},"domaine":{"#2ec26b":"Th\u00e9rapie br\u00e8ve Base Syst\u00e9mique","#ebdd2d":"Hypno-Sophrologue","#19947c":"Praticien en Th\u00e9rapie Br\u00e8ve","#0000ff":"Ma\u00eetre-praticien en PNL","#fe7beb":"Ma\u00eetre Praticien en Hypnose Ericksonienne","#a59394":"Praticien en Deep Neural Repatterning","#b457df":"Hypnose pour les enfants","#347132":"Coach Certifi\u00e9 ICI","#f9436c":"Speed Hypnose","#5c8199":"Enseignant en Programmation Neuro-Linguistique"}},{"AdherentsSuph":{"id":"233","nom":"Michel","prenom":"Florent","email":"florent.michel.psy@gmail.com","adresse":"Le Bourg","ville":"Masleon","latitude":"45.7660089","longitude":"1.5658669","is_client":"1","id_client":"10546","code_postal":"87130"},"Civilite":{"title":"M."},"Client":{"region_id":"7"},"domaine":{"#a59394":"Praticien en Deep Neural Repatterning","#fe7beb":"Praticien en Hypnose Ericksonienne","#0069cc":"Praticien en PNL","#412a2a":"Psycho-Pathologie","#b457df":"Praticien en hypnose spirituelle"}},{"AdherentsSuph":{"id":"234","nom":"Michel","prenom":"Sylvain","email":"sylvain.michel22@orange.fr","adresse":"14 Rue Maurice Ravel","ville":"Loudeac","latitude":"48.1740304","longitude":"-2.7603805","is_client":"1","id_client":"13742","code_postal":"22600"},"Civilite":{"title":"M."},"Client":{"region_id":"3"},"domaine":{"#fe7beb":"Ma\u00eetre Praticien en Hypnose Ericksonienne","#b457df":"Praticien en hypnose spirituelle"}},{"AdherentsSuph":{"id":"237","nom":"Mongay","prenom":"Pascale","email":"pascale@mongay.fr","adresse":"35 Rue Henry Le Chatelier","ville":"Perpignan","latitude":"42.6896507","longitude":"2.904856","is_client":"1","id_client":"8985","code_postal":"66100"},"Civilite":{"title":"Mme"},"Client":{"region_id":"6"},"domaine":{"#fe7beb":"Praticien en Hypnose Ericksonienne","#f9436c":"Speed Hypnose"}},{"AdherentsSuph":{"id":"239","nom":"Montant","prenom":"Laetitia","email":"unautreregard42@gmail.com","adresse":"5 Rue du Careme","ville":"Saint Etienne","latitude":"45.4385405","longitude":"4.3848304","is_client":"1","id_client":"714","code_postal":"42000"},"Civilite":{"title":"Mme"},"Client":{"region_id":"4"},"domaine":{"#fe7beb":"Praticien en Hypnose Ericksonienne"}},{"AdherentsSuph":{"id":"242","nom":"Morin","prenom":"Anthony","email":"morinanthony12@gmail.com","adresse":"72 Rue de Penquer","ville":"Guingant","latitude":"48.5494595","longitude":"-3.15306","is_client":"1","id_client":"9913","code_postal":"22200"},"Civilite":{"title":"M."},"Client":{"region_id":"7"},"domaine":{"#f9436c":"Speed Hypnose","#fe7beb":"Praticien en Hypnose Ericksonienne"}},{"AdherentsSuph":{"id":"243","nom":"Moutier","prenom":"St\u00e9phane","email":"stephane_moutier@yahoo.fr","adresse":"7 rue Poucel","ville":"Marseille","latitude":"43.3044264","longitude":"5.4050904","is_client":"1","id_client":"8000","code_postal":"13004"},"Civilite":{"title":"M."},"Client":{"region_id":"17"},"domaine":{"#33e3ff":"Fundamental Coaching Skills","#006ef5":"Praticien en PNL","#fe7beb":"Praticien en Hypnose Ericksonienne","#0000ff":"Ma\u00eetre-praticien en PNL","#b457df":"Praticien Hypno-Baby","#a59394":"Praticien en Deep Neural Repatterning"}},{"AdherentsSuph":{"id":"246","nom":"Nagard","prenom":"Lynda","email":"lyndanagard@gmail.com","adresse":"80 Rue Paul Diem\u00e9de","ville":"Clermont-Ferand","latitude":"45.7864053","longitude":"3.0711978","is_client":"1","id_client":"10312","code_postal":"63000"},"Civilite":{"title":"Mme"},"Client":{"region_id":"4"},"domaine":{"#fe7beb":"Praticien en Hypnose Ericksonienne","#b457df":"Sp\u00e9cialiste en Perte de poids et Arr\u00eat du tabac"}},{"AdherentsSuph":{"id":"249","nom":"Odin","prenom":"B\u00e9n\u00e9dicte","email":"odinbenedicte@gmail.com","adresse":"11 bis all\u00e9e Maurice sarraut","ville":"Toulouse","latitude":"43.5951325","longitude":"1.4222368","is_client":"1","id_client":"13187","code_postal":"31300"},"Civilite":{"title":"Mme"},"Client":{"region_id":"24"},"domaine":{"#b457df":"Sp\u00e9cialiste en Perte de poids et Arr\u00eat du tabac","#fe7beb":"Praticien en Hypnose Ericksonienne"}},{"AdherentsSuph":{"id":"250","nom":"Palin-Luc","prenom":"Sylvie","email":"spl33700@orange.fr","adresse":"21-23 Avenue du Colonel Bourgoin R\u00e9s. Maria Callas C4","ville":"Martignas sur Jalle","latitude":"44.840366","longitude":"-0.7749009","is_client":"1","id_client":"10316","code_postal":"33127"},"Civilite":{"title":"Mme"},"Client":{"region_id":"6"},"domaine":{"#fe7beb":"Praticien en Hypnose Ericksonienne","#f9436c":"Speed Hypnose","#33e3ff":"Fundamental Coaching Skills","#b457df":"Praticien en hypnose spirituelle","#006ef5":"Praticien en PNL","#a59394":"Praticien en Deep Neural Repatterning"}},{"AdherentsSuph":{"id":"251","nom":"Parrenin","prenom":"Stephan","email":"parreninstephan@gmail.com","adresse":"3 Place Saint Ambroise","ville":"Narbonne","latitude":"43.1848026","longitude":"3.0069363","is_client":"1","id_client":"11539","code_postal":"11100"},"Civilite":{"title":"M."},"Client":{"region_id":"17"},"domaine":{"#b457df":"Sp\u00e9cialiste en Perte de poids et Arr\u00eat du tabac","#fe7beb":"Praticien en Hypnose Ericksonienne"}},{"AdherentsSuph":{"id":"253","nom":"Pawlak","prenom":"Romain","email":"pawlak.romain@free.fr","adresse":"23 Rue Peyreblanque","ville":"Bordeaux","latitude":"44.8502347","longitude":"-0.5929351","is_client":"1","id_client":"10469","code_postal":"33000"},"Civilite":{"title":"M."},"Client":{"region_id":"6"},"domaine":{"#fe7beb":"Praticien en Hypnose Ericksonienne","#33e3ff":"Fundamental Coaching Skills"}},{"AdherentsSuph":{"id":"255","nom":"Peter","prenom":"Gabrielle","email":"peter.gabrielle@wanadoo.fr","adresse":"12A Rue de Lamar","ville":"Wittenheim","latitude":"47.81077","longitude":"7.339439","is_client":"1","id_client":"5543","code_postal":"68270"},"Civilite":{"title":"Mme"},"Client":{"region_id":"8"},"domaine":{"#fe7beb":"Ma\u00eetre Praticien en Hypnose Ericksonienne","#b457df":"Hypno-Enn\u00e9agramme","#0069cc":"Praticien en PNL","#a59394":"Praticien en Deep Neural Repatterning","#f9436c":"Speed Hypnose","#0000ff":"Ma\u00eetre-praticien en PNL","#e60505":"Praticien en Sexoth\u00e9rapie","#2ec26b":"Th\u00e9rapie br\u00e8ve Base Syst\u00e9mique","#19947c":"Praticien en Th\u00e9rapie Familiale et conjugale","#412a2a":"Psycho-Pathologie","#b41d45":"Ma\u00eetre Praticien en Sexoth\u00e9rapie"}},{"AdherentsSuph":{"id":"256","nom":"Petolas","prenom":"Marie-Christophe","email":"marie-christophe.petolas@wanadoo.fr","adresse":"19 Rue de Jouy","ville":"Paris","latitude":"48.855352","longitude":"2.3576967","is_client":"1","id_client":"10522","code_postal":"75004"},"Civilite":{"title":"Mme"},"Client":{"region_id":"7"},"domaine":{"#fe7beb":"Ma\u00eetre Praticien en Hypnose Ericksonienne","#f9436c":"Speed Hypnose","#b457df":"Praticien en Anneau Gastrique Hypnotique"}},{"AdherentsSuph":{"id":"259","nom":"Pham","prenom":"Paskell","email":"paskellpham@gmail.com","adresse":"8 Rue du Rigoulet","ville":"Dinge","latitude":"48.3551774","longitude":"-1.7154363","is_client":"1","id_client":"13077","code_postal":"35440"},"Civilite":{"title":"Mme"},"Client":{"region_id":"3"},"domaine":{"#b457df":"Praticien en Anneau Gastrique Hypnotique","#fe7beb":"Praticien en Hypnose Ericksonienne"}},{"AdherentsSuph":{"id":"260","nom":"PHILIPPO","prenom":"Micka\u00ebl","email":"mickael.philippo@live.fr","adresse":"2 rue Madeleine Desroseaux","ville":"LORIENT","latitude":"47.7407556","longitude":"-3.3664639","is_client":"1","id_client":"5581","code_postal":"56100"},"Civilite":{"title":"M."},"Client":{"region_id":"3"},"domaine":{"#33e3ff":"Fundamental Coaching Skills","#006ef5":"Praticien en PNL","#fe7beb":"Ma\u00eetre Praticien en Hypnose Ericksonienne","#b457df":"Hypno-Enn\u00e9agramme","#a59394":"Praticien en Deep Neural Repatterning","#2ec26b":"Th\u00e9rapie br\u00e8ve Base Syst\u00e9mique"}},{"AdherentsSuph":{"id":"261","nom":"Philipps","prenom":"Chantal","email":"philippschantal61@gmail.com","adresse":"3 Rue du Vivier","ville":"Appenai-Sous-Belleme","latitude":"48.3736895","longitude":"0.521244","is_client":"1","id_client":"12746","code_postal":"61130"},"Civilite":{"title":"Mme"},"Client":{"region_id":"7"},"domaine":{"#fe7beb":"Praticien en Hypnose Ericksonienne"}},{"AdherentsSuph":{"id":"263","nom":"Poinsot","prenom":"Sandrine","email":"sandrineetsam@hotmail.fr","adresse":"48 rue de la chapelle","ville":"Piney","latitude":"48.3640655","longitude":"4.325387","is_client":"1","id_client":"11792","code_postal":"10220"},"Civilite":{"title":"Mme"},"Client":{"region_id":"7"},"domaine":{"#fe7beb":"Ma\u00eetre Praticien en Hypnose Ericksonienne","#b457df":"Hypno-Analg\u00e9sie","#006ef5":"Praticien en PNL","#33e3ff":"Fundamental Coaching Skills","#f9436c":"Speed Hypnose","#a59394":"Praticien en Deep Neural Repatterning","#ea8a10":"Praticien en Hypno-Magn\u00e9tisme","#2ec26b":"Th\u00e9rapie br\u00e8ve Base Syst\u00e9mique","#19947c":"Praticien en Th\u00e9rapie Br\u00e8ve"}},{"AdherentsSuph":{"id":"264","nom":"Poisson","prenom":"C\u00e9cile","email":"cecilefish@gmail.com","adresse":"11 bis rue Mansart,","ville":"Paris","latitude":"48.8820213","longitude":"2.3324198","is_client":"1","id_client":"12010","code_postal":"75009"},"Civilite":{"title":"Mme"},"Client":{"region_id":"7"},"domaine":{"#b457df":"Hypnose pour les enfants","#fe7beb":"Praticien en Hypnose Ericksonienne","#f9436c":"Speed Hypnose"}},{"AdherentsSuph":{"id":"266","nom":"Poulain","prenom":"Mai","email":"maipoulain@hotmail.fr","adresse":"16 Rue de l'Ancienne Poste","ville":"Le Grau Du Roi","latitude":"43.5351948","longitude":"4.1374386","is_client":"1","id_client":"7565","code_postal":"30240"},"Civilite":{"title":"Mme"},"Client":{"region_id":"17"},"domaine":{"#fe7beb":"Praticien en Hypnose Ericksonienne","#b457df":"Hypnose pour les enfants","#412a2a":"Psycho-Pathologie","#0069cc":"Praticien en PNL","#347132":"Coach Certifi\u00e9 ICI","#33e3ff":"Fundamental Coaching Skills","#ea8a10":"Praticien en Hypno-Magn\u00e9tisme"}},{"AdherentsSuph":{"id":"268","nom":"Poupeau","prenom":"Anita","email":"poupeau.anita@orange.fr","adresse":"26 Route de Quiet","ville":"Avanton","latitude":"46.6669339","longitude":"0.3118983","is_client":"1","id_client":"8775","code_postal":"86170"},"Civilite":{"title":"Mme"},"Client":{"region_id":"6"},"domaine":{"#f9436c":"Speed Hypnose","#fe7beb":"Praticien en Hypnose Ericksonienne","#b457df":"Praticien en Anneau Gastrique Hypnotique"}},{"AdherentsSuph":{"id":"269","nom":"Prouhet","prenom":"Celine","email":"ceceprouhet@gmail.com","adresse":"R\u00e9sidence Rives de Gravette 11 Avenue de la Lib\u00e9ration","ville":"Floirac","latitude":"44.8305549","longitude":"-0.527552","is_client":"1","id_client":"8489","code_postal":"33270"},"Civilite":{"title":"Mme"},"Client":{"region_id":"6"},"domaine":{"#fe7beb":"Praticien en Hypnose Ericksonienne","#0069cc":"Praticien en PNL","#b457df":"Praticien en Anneau Gastrique Hypnotique"}},{"AdherentsSuph":{"id":"270","nom":"Qu\u00e9r\u00e9","prenom":"Amandine","email":"aquere85@gmail.com","adresse":"12 Rue Ren\u00e9 Dugay Trouin","ville":"Lanh\u00e9lin","latitude":"48.4603325","longitude":"-1.8251023","is_client":"1","id_client":"9199","code_postal":"35720"},"Civilite":{"title":"Mme"},"Client":{"region_id":"3"},"domaine":{"#fe7beb":"Praticien en Hypnose Ericksonienne"}},{"AdherentsSuph":{"id":"271","nom":"Reis","prenom":"Magda","email":"magda.ferreira77@gmail.com","adresse":"Route De Brannens","ville":"Langon","latitude":"44.5477835","longitude":"-0.2357802","is_client":"1","id_client":"8946","code_postal":"33210"},"Civilite":{"title":"Mme"},"Client":{"region_id":"6"},"domaine":{"#fe7beb":"Praticien en Hypnose Ericksonienne","#b457df":"Praticien Hypno-Baby","#2ec26b":"Th\u00e9rapie br\u00e8ve Base Syst\u00e9mique","#0069cc":"Praticien en PNL"}},{"AdherentsSuph":{"id":"274","nom":"Richert","prenom":"Florence","email":"florencerichert@orange.fr","adresse":"20 av de l'Alouette","ville":"M\u00e9rignac","latitude":"44.8274681","longitude":"-0.6638827","is_client":"1","id_client":"9838","code_postal":"33700"},"Civilite":{"title":"Mme"},"Client":{"region_id":"6"},"domaine":{"#a59394":"Praticien en Deep Neural Repatterning","#fe7beb":"Ma\u00eetre Praticien en Hypnose Ericksonienne","#b457df":"Hypno-Analg\u00e9sie","#0069cc":"Praticien en PNL","#f9436c":"Speed Hypnose"}},{"AdherentsSuph":{"id":"275","nom":"Roche Delesalle","prenom":"Gaelle","email":"gaelle@gardiane.fr","adresse":"20 RUE DE V\u00c9LANNES LA VILLE","ville":"MAGNY EN VEXIN","latitude":"49.1612514","longitude":"1.8198671","is_client":"1","id_client":"7775","code_postal":"95420"},"Civilite":{"title":"Mme"},"Client":{"region_id":"7"},"domaine":{"#fe7beb":"Praticien en Hypnose Ericksonienne"}},{"AdherentsSuph":{"id":"276","nom":"Rocher","prenom":"Anne-Chantal","email":"c.rocher78590@gmail.com","adresse":"19 All\u00e9e Fran\u00e7ois Rabelais","ville":"Noisy-Le-Roi","latitude":"48.8505592","longitude":"2.0577717","is_client":"1","id_client":"7976","code_postal":"78590"},"Civilite":{"title":"Mme"},"Client":{"region_id":"7"},"domaine":{"#b457df":"Hypno-Analg\u00e9sie","#fe7beb":"Praticien en Hypnose Ericksonienne"}},{"AdherentsSuph":{"id":"279","nom":"Rullier","prenom":"Jacques","email":"hypnose74@hotmail.fr","adresse":"206 chemin du Mont Blanc bp19","ville":"Combloux","latitude":"45.896937","longitude":"6.641306","is_client":"1","id_client":"544","code_postal":"74920"},"Civilite":{"title":"M."},"Client":{"region_id":"4"},"domaine":{"#f9436c":"Speed Hypnose"}},{"AdherentsSuph":{"id":"280","nom":"Sabatier","prenom":"Jean-Marc","email":"jeanmarcsabatier@gmail.com","adresse":"20 Boulevard Lib\u00e9ration","ville":"Vincennes","latitude":"48.8466504","longitude":"2.4500283","is_client":"1","id_client":"11236","code_postal":"94300"},"Civilite":{"title":"M."},"Client":{"region_id":"7"},"domaine":{"#fe7beb":"Praticien en Hypnose Ericksonienne"}},{"AdherentsSuph":{"id":"281","nom":"Sanial","prenom":"Sandrine","email":"sandrinesanial@yahoo.fr","adresse":"23 Boulevard Victor Hugo","ville":"Poissy","latitude":"48.9299495","longitude":"2.0442614","is_client":"1","id_client":"10180","code_postal":"78300"},"Civilite":{"title":"Mme"},"Client":{"region_id":"7"},"domaine":{"#fe7beb":"Praticien en Hypnose Ericksonienne","#33e3ff":"Fundamental Coaching Skills"}},{"AdherentsSuph":{"id":"283","nom":"Saurat","prenom":"Marie-Alexandra","email":"Mariealexandra.saurat@gmail.com","adresse":"65, Boulevard Gambetta","ville":"Cahors","latitude":"44.4476386","longitude":"1.4404957","is_client":"1","id_client":"11509","code_postal":"46000"},"Civilite":{"title":"Mme"},"Client":{"region_id":"24"},"domaine":{"#fe7beb":"Praticien en Hypnose Ericksonienne","#b457df":"Praticien en hypnose spirituelle"}},{"AdherentsSuph":{"id":"284","nom":"Scaletta","prenom":"H\u00e9l\u00e8ne","email":"h.scaletta@free.fr","adresse":"163 B route d\u00e9partementale 543","ville":"Les Pennes Mirabeau","latitude":"43.4083231","longitude":"5.3207069","is_client":"1","id_client":"9016","code_postal":"13170"},"Civilite":{"title":"Mme"},"Client":{"region_id":"17"},"domaine":{"#fe7beb":"Praticien en Hypnose Ericksonienne","#33e3ff":"Fundamental Coaching Skills","#b457df":"Sp\u00e9cialiste en Perte de poids et Arr\u00eat du tabac"}},{"AdherentsSuph":{"id":"285","nom":"Schneider","prenom":"Muriel","email":"plume.m.001@gmail.com","adresse":"224 Rue de la Dominante","ville":"Saint Pierre Du Mont","latitude":"43.8720299","longitude":"-0.5138439","is_client":"1","id_client":"10091","code_postal":"40280"},"Civilite":{"title":"Mme"},"Client":{"region_id":"6"},"domaine":{"#fe7beb":"Praticien en Hypnose Ericksonienne","#33e3ff":"Fundamental Coaching Skills","#b457df":"Praticien en hypnose spirituelle","#006ef5":"Praticien en PNL","#a59394":"Praticien en Deep Neural Repatterning"}},{"AdherentsSuph":{"id":"287","nom":"Schwebel","prenom":"Elisabeth","email":"elisabethschwebel.es@gmail.com","adresse":"13 rue Cornac","ville":"Bordeaux","latitude":"44.8512278","longitude":"-0.5726434","is_client":"1","id_client":"10910","code_postal":"33000"},"Civilite":{"title":"Mme"},"Client":{"region_id":"6"},"domaine":{"#fe7beb":"Praticien en Hypnose Ericksonienne","#0069cc":"Praticien en PNL","#33e3ff":"Fundamental Coaching Skills","#f9436c":"Speed Hypnose","#b457df":"Hypno-Analg\u00e9sie"}},{"AdherentsSuph":{"id":"288","nom":"Seel","prenom":"Christine","email":"netichris971@gmail.com","adresse":"12, Route de Ferny Lieu-dit 'Malarade'","ville":"Noaillan","latitude":"44.479551","longitude":"-0.366154","is_client":"1","id_client":"11658","code_postal":"33730"},"Civilite":{"title":"Mme"},"Client":{"region_id":"6"},"domaine":{"#fe7beb":"Enseignant en Hypnose","#f9436c":"Speed Hypnose","#0069cc":"Praticien en PNL","#b457df":"Praticien en Anneau Gastrique Hypnotique","#0000ff":"Ma\u00eetre-praticien en PNL"}},{"AdherentsSuph":{"id":"289","nom":"S\u00e9n\u00e9","prenom":"Sandrine","email":"saframajo40@orange.fr","adresse":"10 Rue des Alouettes","ville":"Tarnos","latitude":"43.5404788","longitude":"-1.4868948","is_client":"1","id_client":"9800","code_postal":"40280"},"Civilite":{"title":"Mme"},"Client":{"region_id":"6"},"domaine":{"#a59394":"Praticien en Deep Neural Repatterning","#f9436c":"Speed Hypnose","#0069cc":"Praticien en PNL","#0000ff":"Ma\u00eetre-praticien en PNL","#fe7beb":"Praticien en Hypnose Ericksonienne","#b457df":"Praticien en hypnose spirituelle","#ea8a10":"Praticien en Hypno-Magn\u00e9tisme"}},{"AdherentsSuph":{"id":"292","nom":"Souque","prenom":"Philippe","email":"philippesouque@gmail.com","adresse":"Appt 400 22 rue Vital Carles","ville":"Bordeaux","latitude":"44.8403557","longitude":"-0.5781361","is_client":"1","id_client":"10970","code_postal":"33000"},"Civilite":{"title":"M."},"Client":{"region_id":"6"},"domaine":{"#f9436c":"Speed Hypnose","#fe7beb":"Praticien en Hypnose Ericksonienne","#0069cc":"Praticien en PNL","#0000ff":"Ma\u00eetre-praticien en PNL","#a59394":"Praticien en Deep Neural Repatterning"}},{"AdherentsSuph":{"id":"293","nom":"Spiess","prenom":"Andr\u00e9","email":"andre.spiess@asqm.net","adresse":"34 Route de Marcy l'Etoile","ville":"Sainte Consorce","latitude":"45.7776343","longitude":"4.6957895","is_client":"1","id_client":"10404","code_postal":"69280"},"Civilite":{"title":"M."},"Client":{"region_id":"4"},"domaine":{"#b457df":"Sp\u00e9cialiste en Perte de poids et Arr\u00eat du tabac","#fe7beb":"Praticien en Hypnose Ericksonienne","#33e3ff":"Fundamental Coaching Skills"}},{"AdherentsSuph":{"id":"298","nom":"Tardy","prenom":"V\u00e9ronique","email":"v.tardy@hotmail.fr","adresse":"114 Bis Avenue Lacassague","ville":"Lyon","latitude":"45.7475463","longitude":"4.8817884","is_client":"1","id_client":"9451","code_postal":"69003"},"Civilite":{"title":"Mme"},"Client":{"region_id":"4"},"domaine":{"#fe7beb":"Ma\u00eetre Praticien en Hypnose Ericksonienne","#b457df":"Sp\u00e9cialiste en Perte de poids et Arr\u00eat du tabac","#f9436c":"Speed Hypnose"}},{"AdherentsSuph":{"id":"299","nom":"Taveau","prenom":"Barbara","email":"quillet.barbara@neuf.fr","adresse":"39 Rue du Vallon","ville":"Esvres","latitude":"47.2872063","longitude":"0.7907927","is_client":"1","id_client":"10627","code_postal":"37320"},"Civilite":{"title":"Mme"},"Client":{"region_id":"7"},"domaine":{"#fe7beb":"Praticien en Hypnose Ericksonienne","#f9436c":"Speed Hypnose"}},{"AdherentsSuph":{"id":"301","nom":"Thomasset","prenom":"Isabelle","email":"isa.013@hotmail.fr","adresse":"51 Rue Waldeck Rousseau","ville":"Angoul\u00eame","latitude":"45.6474417","longitude":"0.1522622","is_client":"1","id_client":"9928","code_postal":"16000"},"Civilite":{"title":"Mme"},"Client":{"region_id":"6"},"domaine":{"#fe7beb":"Praticien en Hypnose Ericksonienne","#b457df":"Sp\u00e9cialiste en Perte de poids et Arr\u00eat du tabac","#33e3ff":"Fundamental Coaching Skills","#412a2a":"Psycho-Pathologie","#2ec26b":"Th\u00e9rapie br\u00e8ve Base Syst\u00e9mique"}},{"AdherentsSuph":{"id":"303","nom":"Tokarska","prenom":"Alain","email":"tokarska.alain@neuf.fr","adresse":"24 Rue du Docteur Calmette","ville":"Cr\u00e9py en Valois","latitude":"49.2305382","longitude":"2.8793983","is_client":"1","id_client":"3646","code_postal":"60800"},"Civilite":{"title":"M."},"Client":{"region_id":"7"},"domaine":{"#ffe80f":"Relaxologue","#33e3ff":"Fundamental Coaching Skills","#fe7beb":"Praticien en Hypnose Ericksonienne"}},{"AdherentsSuph":{"id":"304","nom":"Tomassino","prenom":"V\u00e9ronique","email":"verogerald@wanadoo.fr","adresse":"Chef-Lieu Le Bivouac","ville":"Sixt-Fer-\u00e0-Cheval","latitude":"46.0539455","longitude":"6.7752565","is_client":"1","id_client":"9246","code_postal":"74740"},"Civilite":{"title":"Mme"},"Client":{"region_id":"4"},"domaine":{"#fe7beb":"Praticien en Hypnose Ericksonienne"}},{"AdherentsSuph":{"id":"305","nom":"Touitou","prenom":"Michael","email":"mt.mail.mt@gmail.com","adresse":"112 Avenue de Paris","ville":"Vincennes","latitude":"48.8458643","longitude":"2.4263722","is_client":"1","id_client":"8633","code_postal":"94300"},"Civilite":{"title":"M."},"Client":{"region_id":"7"},"domaine":{"#0000ff":"Ma\u00eetre-praticien en PNL","#0069cc":"Praticien en PNL","#fe7beb":"Praticien en Hypnose Ericksonienne","#412a2a":"Psycho-Pathologie","#2ec26b":"Th\u00e9rapie br\u00e8ve Base Syst\u00e9mique","#19947c":"Praticien en Th\u00e9rapie Br\u00e8ve","#33e3ff":"Fundamental Coaching Skills","#b457df":"Praticien en Anneau Gastrique Hypnotique","#a59394":"Praticien en Deep Neural Repatterning"}},{"AdherentsSuph":{"id":"307","nom":"Tricot","prenom":"Caroline","email":"c.tricot@yahoo.fr","adresse":"19 Rue Alexandre Boutins","ville":"Villeurbonne","latitude":"45.7697163","longitude":"4.8689667","is_client":"1","id_client":"6699","code_postal":"69100"},"Civilite":{"title":"Mme"},"Client":{"region_id":"4"},"domaine":{"#fe7beb":"Ma\u00eetre Praticien en Hypnose Ericksonienne","#b457df":"Praticien en hypnose spirituelle","#f9436c":"Speed Hypnose"}},{"AdherentsSuph":{"id":"308","nom":"Triphonoff","prenom":"Isabelle","email":"isatripho@hotmail.fr","adresse":"6 Rue peu d'olivet","ville":"Chinon","latitude":"47.1851002","longitude":"0.2688346","is_client":"1","id_client":"11647","code_postal":"37500"},"Civilite":{"title":"Mme"},"Client":{"region_id":"7"},"domaine":{"#fe7beb":"Praticien en Hypnose Ericksonienne"}},{"AdherentsSuph":{"id":"310","nom":"Ungerman","prenom":"Jean-Paul","email":"jpungerman@me.com","adresse":"13 r\u00e9sidence les Fr\u00eanes","ville":"Aubagne","latitude":"43.2909738","longitude":"5.5618875","is_client":"1","id_client":"8531","code_postal":""},"Civilite":{"title":"M."},"Client":{"region_id":"17"},"domaine":{"#fe7beb":"Ma\u00eetre Praticien en Hypnose Ericksonienne","#a59394":"Praticien en Deep Neural Repatterning","#b457df":"Hypno-Analg\u00e9sie","#006ef5":"Praticien en PNL","#33e3ff":"Fundamental Coaching Skills"}},